{
  "obshtina": "BGS23",
  "generatedAt": "2026-05-28T09:44:39.748Z",
  "sourceContractCount": 102,
  "geocodedCount": 72,
  "pins": [
    {
      "ekatte": "44029",
      "lat": 42.770804,
      "lon": 26.877908,
      "title": "Извършване на строителни дейности и доставка на оборудване и обзавеждане за Дом за стари хора с. Лозарево",
      "totalEur": 2983527.88,
      "status": "В изпълнение (от дата на стартиране)",
      "contractNumber": "BG-RRP-11.010-0049",
      "programName": "Национален план за възстановяване и устойчивост"
    },
    {
      "ekatte": "70247",
      "lat": 42.763109,
      "lon": 26.773459,
      "title": "Изграждане и оборудване на нови социални и интегрирани здравно-социални услуги за резидентна грижа и специализирани социални услуги за лица с увреждания в община Сунгурларе",
      "totalEur": 2444771.79,
      "status": "В изпълнение (от дата на стартиране)",
      "contractNumber": "BG-RRP-11.018-0035",
      "programName": "Национален план за възстановяване и устойчивост"
    },
    {
      "ekatte": "12591",
      "lat": 42.730143,
      "lon": 26.895862,
      "title": "Създаване на трайни насаждения и въвеждане на технологии за прецизно земеделие и напояване",
      "totalEur": 998348.53,
      "status": "Сключен",
      "contractNumber": "BG06RDNP001-4.012-1627",
      "programName": "Програма за развитие на селските райони"
    },
    {
      "ekatte": "70247",
      "lat": 42.763109,
      "lon": 26.773459,
      "title": "Повишаване на Енергийната ефективност на Леястом ЕООД",
      "totalEur": 699570.41,
      "status": "Приключен (към датата на приключване)",
      "contractNumber": "BG16RFOP002-3.001-0051",
      "programName": "Иновации и конкурентоспособност"
    },
    {
      "ekatte": "27615",
      "lat": 42.826735,
      "lon": 26.781007,
      "title": "Ремонт и реконструкция на овцеферма в имот № 000332, м. „Хендe Бала“ , с. Есен, общ.Сунгурларе и закупуване на земеделска техника",
      "totalEur": 445975.03,
      "status": "Сключен",
      "contractNumber": "BG06RDNP001-4.008-0618",
      "programName": "Програма за развитие на селските райони"
    },
    {
      "ekatte": "44029",
      "lat": 42.770804,
      "lon": 26.877908,
      "title": "Модернизиране на предприятие за преработка и добив на дървесина в община Сърница",
      "totalEur": 411515.86,
      "status": "Сключен",
      "contractNumber": "BG06RDNP001-8.001-0183",
      "programName": "Програма за развитие на селските райони"
    },
    {
      "ekatte": "44029",
      "lat": 42.770804,
      "lon": 26.877908,
      "title": "Закупуване на земеделска техника и поливни системи за нуждите на земеделското стопанство на ЕТ \"ХРИСТО РАХНЕВ - ЧАВДАР ИВАНОВ\"",
      "totalEur": 377379.59,
      "status": "Сключен",
      "contractNumber": "BG06RDNP001-4.012-1891",
      "programName": "Програма за развитие на селските райони"
    },
    {
      "ekatte": "56959",
      "lat": 42.8387,
      "lon": 26.846844,
      "title": "Модернизация на животновъдното стопанство на ЕТ КЕМАЛ БОЗОВ",
      "totalEur": 362000,
      "status": "Сключен",
      "contractNumber": "BG-RRP-6.004-3446",
      "programName": "Национален план за възстановяване и устойчивост"
    },
    {
      "ekatte": "70514",
      "lat": 42.874899,
      "lon": 27.025513,
      "title": "Закупуване на трактор и прикачна пръскачка.",
      "totalEur": 356500,
      "status": "Сключен",
      "contractNumber": "BG-RRP-6.004-0026",
      "programName": "Национален план за възстановяване и устойчивост"
    },
    {
      "ekatte": "44029",
      "lat": 42.770804,
      "lon": 26.877908,
      "title": "Инвестиции в технологична и екологична модернизация в стопанството на ЗС Виктор Любенов",
      "totalEur": 348000,
      "status": "Сключен",
      "contractNumber": "BG-RRP-6.004-0331",
      "programName": "Национален план за възстановяване и устойчивост"
    },
    {
      "ekatte": "72299",
      "lat": 42.681737,
      "lon": 26.76581,
      "title": "Закупуване на самоходен гроздокомбайн",
      "totalEur": 340999.98,
      "status": "Сключен",
      "contractNumber": "BG-RRP-6.004-2057",
      "programName": "Национален план за възстановяване и устойчивост"
    },
    {
      "ekatte": "10327",
      "lat": 42.853414,
      "lon": 26.706159,
      "title": "Технологична и екологична модернизация чрез закупуване на специализирано земеделско оборудване и системи за отглеждане на животни.",
      "totalEur": 336041.44,
      "status": "Сключен",
      "contractNumber": "BG-RRP-6.004-3302",
      "programName": "Национален план за възстановяване и устойчивост"
    },
    {
      "ekatte": "70247",
      "lat": 42.763109,
      "lon": 26.773459,
      "title": "Консервационно-реставрационни дейности по фасадите и интериора на Храм СВЕТИ АРХАНГЕЛ МИХАИЛ",
      "totalEur": 298983.04,
      "status": "Сключен",
      "contractNumber": "BG06RDNP001-7.015-0003",
      "programName": "Програма за развитие на селските райони"
    },
    {
      "ekatte": "44029",
      "lat": 42.770804,
      "lon": 26.877908,
      "title": "Консервационно-реставрационни дейности по фасадите и изписване в интериора на храм Свети Димитър",
      "totalEur": 298621.05,
      "status": "Сключен",
      "contractNumber": "BG06RDNP001-7.015-0002",
      "programName": "Програма за развитие на селските райони"
    },
    {
      "ekatte": "58325",
      "lat": 42.850037,
      "lon": 26.930294,
      "title": "Закупуване на Дигитализирани сеялки за прецизна сеитба Horsh Pronto 6 NT - 2 бр., Дисплей Gen 4 4240 Universal - 2 бр., Приемник Star Fire 6000 SF 1 Ready - 2 бр., Активация Gen 4 Universal Auto Trac - 2 бр., изграждане на ФтЕЦ 50 kWp и строителство на обект:административна сграда с работилница и гараж на 3 клетки за селскостопански машини",
      "totalEur": 296172.13,
      "status": "Сключен",
      "contractNumber": "BG06RDNP001-4.012-1616",
      "programName": "Програма за развитие на селските райони"
    },
    {
      "ekatte": "81006",
      "lat": 42.771524,
      "lon": 26.829039,
      "title": "Инвестиции в технологична и екологична модернизация, чрез закупуване на земеделска техника",
      "totalEur": 269588.4,
      "status": "Сключен",
      "contractNumber": "BG-RRP-6.004-0746",
      "programName": "Национален план за възстановяване и устойчивост"
    },
    {
      "ekatte": "10327",
      "lat": 42.853414,
      "lon": 26.706159,
      "title": "\"Закупуване на земеделска техника за отглеждане на овце, крави и угояване на агнета и телета\"",
      "totalEur": 252466.52,
      "status": "Сключен",
      "contractNumber": "BG06RDNP001-4.012-0154",
      "programName": "Програма за развитие на селските райони"
    },
    {
      "ekatte": "56959",
      "lat": 42.8387,
      "lon": 26.846844,
      "title": "РЕКОНСТРУКЦИЯ НА СЪЩЕСТВУВАЩ КРАВАРНИК В УПИ ІІ СТОП ДВОР КВ. 61 ПО ПУП НА С.ПОДВИС ОБЩ. СУНГУРЛАРЕ ОБЛ.БУРГАС",
      "totalEur": 244777.82,
      "status": "Сключен",
      "contractNumber": "BG06RDNP001-4.008-0640",
      "programName": "Програма за развитие на селските райони"
    },
    {
      "ekatte": "81582",
      "lat": 42.75543,
      "lon": 26.706418,
      "title": "„Закупуване на селскостопанска техника“",
      "totalEur": 204252.94,
      "status": "Сключен",
      "contractNumber": "BG-RRP-6.004-1447",
      "programName": "Национален план за възстановяване и устойчивост"
    },
    {
      "ekatte": "44029",
      "lat": 42.770804,
      "lon": 26.877908,
      "title": "Повишаване на производителността и експортния потенциал на предприятието на ЕТ \"Кемал Бозов\"",
      "totalEur": 198422.16,
      "status": "Приключен (към датата на приключване)",
      "contractNumber": "BG16RFOP002-2.037-0004",
      "programName": "Иновации и конкурентоспособност"
    },
    {
      "ekatte": "70247",
      "lat": 42.763109,
      "lon": 26.773459,
      "title": "“Обновяване на лесопарк „Ичмята“ гр.Сунгурларе, община Сунгурларе",
      "totalEur": 180367.92,
      "status": "Сключен",
      "contractNumber": "BG06RDNP001-19.245-0004",
      "programName": "Програма за развитие на селските райони"
    },
    {
      "ekatte": "70247",
      "lat": 42.763109,
      "lon": 26.773459,
      "title": "Изграждане на училищна STEM среда в Средно училище „Христо Ботев“, град Сунгурларе",
      "totalEur": 178394.1,
      "status": "В изпълнение (от дата на стартиране)",
      "contractNumber": "BG-RRP-1.015-1117",
      "programName": "Национален план за възстановяване и устойчивост"
    },
    {
      "ekatte": "70247",
      "lat": 42.763109,
      "lon": 26.773459,
      "title": "Инвестиции в технологична и екологична модернизация на стопанството на АГРОВИН ООД",
      "totalEur": 166371.82,
      "status": "Сключен",
      "contractNumber": "BG-RRP-6.004-4024",
      "programName": "Национален план за възстановяване и устойчивост"
    },
    {
      "ekatte": "44029",
      "lat": 42.770804,
      "lon": 26.877908,
      "title": "Подобряване на безопасността и условията на труд в БОЗОВИ – 2009 ЕООД",
      "totalEur": 112774.64,
      "status": "Приключен (към датата на приключване)",
      "contractNumber": "BG05M9OP001-1.008-0671",
      "programName": "Развитие на човешките ресурси"
    },
    {
      "ekatte": "70247",
      "lat": 42.763109,
      "lon": 26.773459,
      "title": "Подобряване на производствения капацитет на \"Стидов 99\" ООД",
      "totalEur": 102258.38,
      "status": "В изпълнение (от дата на стартиране)",
      "contractNumber": "BG16RFPR001-1.004-0571",
      "programName": "Програма \"Конкурентоспособност и иновации в предприятията\" 2021-2027"
    },
    {
      "ekatte": "47096",
      "lat": 42.869777,
      "lon": 26.802144,
      "title": "Изграждане на училищна STEM среда и високотехнологични оборудвани и свързани класни стаи (ВОСКС).",
      "totalEur": 92707.96,
      "status": "В изпълнение (от дата на стартиране)",
      "contractNumber": "BG-RRP-1.015-0182",
      "programName": "Национален план за възстановяване и устойчивост"
    },
    {
      "ekatte": "44029",
      "lat": 42.770804,
      "lon": 26.877908,
      "title": "ОУ \"ХРИСТО БОТЕВ\"",
      "totalEur": 90668.35,
      "status": "В изпълнение (от дата на стартиране)",
      "contractNumber": "BG-RRP-1.015-0174",
      "programName": "Национален план за възстановяване и устойчивост"
    },
    {
      "ekatte": "70514",
      "lat": 42.874899,
      "lon": 27.025513,
      "title": "Изграждане на училищна STEM среда и високотехнологични оборудвани и свързани класни стаи (ВОСКС).",
      "totalEur": 90578.62,
      "status": "Приключен (към датата на приключване)",
      "contractNumber": "BG-RRP-1.015-0316",
      "programName": "Национален план за възстановяване и устойчивост"
    },
    {
      "ekatte": "58857",
      "lat": 42.884741,
      "lon": 26.773345,
      "title": "Модернизация на цех за преработка на дървесина",
      "totalEur": 77460.71,
      "status": "Сключен",
      "contractNumber": "BG06RDNP001-19.473-0003",
      "programName": "Програма за развитие на селските райони"
    },
    {
      "ekatte": "70247",
      "lat": 42.763109,
      "lon": 26.773459,
      "title": "Използване на енергия от възобновяеми източници за подобряване енергийната ефективност на \"Ем Джи Консулт 2008\" ООД",
      "totalEur": 76690.89,
      "status": "В изпълнение (от дата на стартиране)",
      "contractNumber": "BG16RFPR001-2.004-0517",
      "programName": "Програма \"Конкурентоспособност и иновации в предприятията\" 2021-2027"
    },
    {
      "ekatte": "38889",
      "lat": 42.782313,
      "lon": 26.955376,
      "title": "Инвестиции в технологична и екологична модернизация за подобряване на цялостната дейност в земеделското стопанство",
      "totalEur": 71478.98,
      "status": "Сключен",
      "contractNumber": "BG-RRP-6.004-3825",
      "programName": "Национален план за възстановяване и устойчивост"
    },
    {
      "ekatte": "70247",
      "lat": 42.763109,
      "lon": 26.773459,
      "title": "\"Повишаване на конкурентоспособността на „Смарт Кардио“ ЕООД на територията на МИГ, чрез създаване на възможности за местен бизнес чрез пазарна реализация на интелигентна услуга по домашна телемедицина\"",
      "totalEur": 61691.39,
      "status": "Приключен (към датата на приключване)",
      "contractNumber": "BG16RFOP002-2.054-0003",
      "programName": "Иновации и конкурентоспособност"
    },
    {
      "ekatte": "70247",
      "lat": 42.763109,
      "lon": 26.773459,
      "title": "Подкрепа за подобряване на производствения капацитет на семейно предприятие \"Ем Джи Консулт 2008\" ООД",
      "totalEur": 58287.27,
      "status": "В изпълнение (от дата на стартиране)",
      "contractNumber": "BG16RFPR001-1.004-0895",
      "programName": "Програма \"Конкурентоспособност и иновации в предприятията\" 2021-2027"
    },
    {
      "ekatte": "70247",
      "lat": 42.763109,
      "lon": 26.773459,
      "title": "Закупуване на електрическо превозно средство за предоставяне на социални услуги, включително свързана зарядна станция за нуждите на Община Сунгурларе",
      "totalEur": 58082.76,
      "status": "В изпълнение (от дата на стартиране)",
      "contractNumber": "BG-RRP-13.009-0052",
      "programName": "Национален план за възстановяване и устойчивост"
    },
    {
      "ekatte": "12591",
      "lat": 42.730143,
      "lon": 26.895862,
      "title": "Инвестиции в технологична и екологична модернизация в стопанството на Пеню Димов",
      "totalEur": 57735.08,
      "status": "Сключен",
      "contractNumber": "BG-RRP-6.004-4013",
      "programName": "Национален план за възстановяване и устойчивост"
    },
    {
      "ekatte": "70247",
      "lat": 42.763109,
      "lon": 26.773459,
      "title": "95 години читалище \"Васил Левски\" с. Прилеп - Фестивал на Българските фолклорни традиции",
      "totalEur": 52653,
      "status": "В изпълнение (от дата на стартиране)",
      "contractNumber": "BG-RRP-11.020-0033",
      "programName": "Национален план за възстановяване и устойчивост"
    },
    {
      "ekatte": "67115",
      "lat": 42.765144,
      "lon": 26.731007,
      "title": "Закупуване на църковна утвар и оборудване за църква „ Свети Димитър“ село Славянци",
      "totalEur": 50887.66,
      "status": "Сключен",
      "contractNumber": "BG06RDNP001-19.537-0002",
      "programName": "Програма за развитие на селските райони"
    },
    {
      "ekatte": "67115",
      "lat": 42.765144,
      "lon": 26.731007,
      "title": ",,Изграждане на комбинирана спортна площадка за минифутбол, баскетбол и волейбол в село Славянци, Община Сунгурларе\"\"",
      "totalEur": 48896.45,
      "status": "Сключен",
      "contractNumber": "BG06RDNP001-7.007-0069",
      "programName": "Програма за развитие на селските райони"
    },
    {
      "ekatte": "70247",
      "lat": 42.763109,
      "lon": 26.773459,
      "title": "Закупуване на трактор с челен товарач за кравеферма.",
      "totalEur": 46016.27,
      "status": "Сключен",
      "contractNumber": "BG06RDNP001-4.008-0492",
      "programName": "Програма за развитие на селските райони"
    },
    {
      "ekatte": "70247",
      "lat": 42.763109,
      "lon": 26.773459,
      "title": "„Закупуване на земеделска техника, метерорологична станция и инвестиции в цифрови технологии за автоматизиране на работните процеси в земеделското стопанството на „МБН“ ООД“",
      "totalEur": 45302.19,
      "status": "Сключен",
      "contractNumber": "BG06RDNP001-4.012-0372",
      "programName": "Програма за развитие на селските райони"
    },
    {
      "ekatte": "47096",
      "lat": 42.869777,
      "lon": 26.802144,
      "title": "Инвестиция за по-висока производителност и нови експортни възможности пред Тандем 13 ЕООД",
      "totalEur": 45103.25,
      "status": "Приключен (към датата на приключване)",
      "contractNumber": "BG16RFOP002-2.037-0001",
      "programName": "Иновации и конкурентоспособност"
    },
    {
      "ekatte": "70247",
      "lat": 42.763109,
      "lon": 26.773459,
      "title": "Закупуване на земеделска техника и оборудване за стопанството на ЗП Георги Кръстев, с цел модернизиране",
      "totalEur": 39778.52,
      "status": "Сключен",
      "contractNumber": "BG06RDNP001-4.012-0992",
      "programName": "Програма за развитие на селските райони"
    },
    {
      "ekatte": "38889",
      "lat": 42.782313,
      "lon": 26.955376,
      "title": "„Закупуване на селскостопанска техника“",
      "totalEur": 32423.58,
      "status": "Сключен",
      "contractNumber": "BG-RRP-6.004-1100",
      "programName": "Национален план за възстановяване и устойчивост"
    },
    {
      "ekatte": "58325",
      "lat": 42.850037,
      "lon": 26.930294,
      "title": "Изграждане на училищна STEM среда и високотехнологични оборудвани и свързани класни стаи (ВОСКС).",
      "totalEur": 30929.04,
      "status": "В изпълнение (от дата на стартиране)",
      "contractNumber": "BG-RRP-1.015-0630",
      "programName": "Национален план за възстановяване и устойчивост"
    },
    {
      "ekatte": "67115",
      "lat": 42.765144,
      "lon": 26.731007,
      "title": "Стартова помощ за създаване на стопанство на млад фермер - Биляна Руменова Михалева",
      "totalEur": 24999.62,
      "status": "Сключен",
      "contractNumber": "BG06RDNP001-6.013-0120",
      "programName": "Програма за развитие на селските райони"
    },
    {
      "ekatte": "05726",
      "lat": 42.821952,
      "lon": 27.010915,
      "title": "Стартова помощ за създаване на стопанство на млад фермер - Милена Методиева Ченешева",
      "totalEur": 24999.61,
      "status": "Сключен",
      "contractNumber": "BG06RDNP001-6.001-1041",
      "programName": "Програма за развитие на селските райони"
    },
    {
      "ekatte": "10327",
      "lat": 42.853414,
      "lon": 26.706159,
      "title": "Стартова помощ за земеделското стопанство на Ерджан Ишлек",
      "totalEur": 24999.61,
      "status": "Сключен",
      "contractNumber": "BG06RDNP001-6.013-0244",
      "programName": "Програма за развитие на селските райони"
    },
    {
      "ekatte": "38889",
      "lat": 42.782313,
      "lon": 26.955376,
      "title": "Стартова помощ за земеделското стопанство на Тахир Тахиров",
      "totalEur": 24999.61,
      "status": "Сключен",
      "contractNumber": "BG06RDNP001-6.013-0291",
      "programName": "Програма за развитие на селските райони"
    },
    {
      "ekatte": "36004",
      "lat": 42.886604,
      "lon": 26.968188,
      "title": "„Развитие и модернизация на стопанството на млад фермер в с.Камчия при отглеждането на месодайни крави“",
      "totalEur": 24999.61,
      "status": "Сключен",
      "contractNumber": "BG06RDNP001-6.013-0350",
      "programName": "Програма за развитие на селските райони"
    },
    {
      "ekatte": "17909",
      "lat": 42.721614,
      "lon": 26.753919,
      "title": "1.ЗАКУПУВАНЕ НА МАТЕРИАЛЕН АКТИВ ЗА ИЗНАСЯНЕ И ТОВАРЕНЕ НА ЗЕМЕДЕЛСКА ПРОДУКЦИЯ САМОХОДЕН ТОВАРАЧ- EWERUN 1200 ZERO-ЕЛЕКТРИЧЕСКИ 2.ЗАКУПУВАНЕ НА МАТЕРИАЛЕН АКТИВ -ПАЛЕТНИ ВИЛИЦИ ЗА ТОВАРАЧ EWERUN 1200 -ZERO",
      "totalEur": 21682.86,
      "status": "Сключен",
      "contractNumber": "BG-RRP-6.004-0830",
      "programName": "Национален план за възстановяване и устойчивост"
    },
    {
      "ekatte": "58325",
      "lat": 42.850037,
      "lon": 26.930294,
      "title": "Проект по подмярка Подмярка 6.3 „Стартова помощ за развитието на малки стопанства“ на от Джансу Исмаил, с площ от 2,3026 ха - Череши и Угари",
      "totalEur": 14999.78,
      "status": "Сключен",
      "contractNumber": "BG06RDNP001-6.007-0026",
      "programName": "Програма за развитие на селските райони"
    },
    {
      "ekatte": "27615",
      "lat": 42.826735,
      "lon": 26.781007,
      "title": "Стартова помощ за пчеларското стопанство на Тодор Стаматов",
      "totalEur": 14999.77,
      "status": "Сключен",
      "contractNumber": "BG06RDNP001-6.007-1120",
      "programName": "Програма за развитие на селските райони"
    },
    {
      "ekatte": "38889",
      "lat": 42.782313,
      "lon": 26.955376,
      "title": "Подпомагане на малкото земеделско стопанство на Пенчо Георгиев Железов",
      "totalEur": 14999.77,
      "status": "Сключен",
      "contractNumber": "BG06RDNP001-6.007-1299",
      "programName": "Програма за развитие на селските райони"
    },
    {
      "ekatte": "76056",
      "lat": 42.864332,
      "lon": 26.761299,
      "title": "Подпомагане развитието на стопанството на земеделски стопанин Николай Велков Йорданов",
      "totalEur": 14999.77,
      "status": "Сключен",
      "contractNumber": "BG06RDNP001-6.012-0810",
      "programName": "Програма за развитие на селските райони"
    },
    {
      "ekatte": "67115",
      "lat": 42.765144,
      "lon": 26.731007,
      "title": "Подпомагане развитието на стопанството на Пенка Рашева",
      "totalEur": 14999.77,
      "status": "Сключен",
      "contractNumber": "BG06RDNP001-6.012-1562",
      "programName": "Програма за развитие на селските райони"
    },
    {
      "ekatte": "37215",
      "lat": 42.778829,
      "lon": 26.905773,
      "title": "Стартова помощ за пчеларското стопанство на Иван Узунов",
      "totalEur": 14999.76,
      "status": "Сключен",
      "contractNumber": "BG06RDNP001-6.007-1142",
      "programName": "Програма за развитие на селските райони"
    },
    {
      "ekatte": "17909",
      "lat": 42.721614,
      "lon": 26.753919,
      "title": "Закупуване на косачка VAN WAMEL DR365 и надробител RINIERI TRV165",
      "totalEur": 14773.98,
      "status": "Сключен",
      "contractNumber": "BG06RDNP001-19.063-0010",
      "programName": "Програма за развитие на селските райони"
    },
    {
      "ekatte": "58325",
      "lat": 42.850037,
      "lon": 26.930294,
      "title": "Изграждане на дигитален клуб в село Прилеп",
      "totalEur": 14316.17,
      "status": "В изпълнение (от дата на стартиране)",
      "contractNumber": "BG-RRP-1.024-0442",
      "programName": "Национален план за възстановяване и устойчивост"
    },
    {
      "ekatte": "81582",
      "lat": 42.75543,
      "lon": 26.706418,
      "title": "Издграждане на дигитален клуб в Народно читалище - Пробуда - 1931г.",
      "totalEur": 14316.17,
      "status": "В изпълнение (от дата на стартиране)",
      "contractNumber": "BG-RRP-1.024-0895",
      "programName": "Национален план за възстановяване и устойчивост"
    },
    {
      "ekatte": "44029",
      "lat": 42.770804,
      "lon": 26.877908,
      "title": "Изграждане на дигитален клуб в село Лозарево",
      "totalEur": 14316.17,
      "status": "В изпълнение (от дата на стартиране)",
      "contractNumber": "BG-RRP-1.024-1267",
      "programName": "Национален план за възстановяване и устойчивост"
    },
    {
      "ekatte": "66682",
      "lat": 42.772835,
      "lon": 26.687222,
      "title": "Подкрепа за производители на риба и други водни организми за преодоляване на икономическите последствия от пандемията COVID-19",
      "totalEur": 12475.53,
      "status": "Приключен (към датата на приключване)",
      "contractNumber": "BG14MFOP001-2.014-0068",
      "programName": "Програма за морско дело и рибарство"
    },
    {
      "ekatte": "66682",
      "lat": 42.772835,
      "lon": 26.687222,
      "title": "Смекчаване на последиците от агресивната война на Русия срещу Украйна върху дейността на Диаманта ЕООД",
      "totalEur": 10389.4,
      "status": "Приключен (към датата на приключване)",
      "contractNumber": "BG14MFOP001-5.021-0033",
      "programName": "Програма за морско дело и рибарство"
    },
    {
      "ekatte": "66682",
      "lat": 42.772835,
      "lon": 26.687222,
      "title": "Смекчаване на последиците от агресивната война на Русия срещу Украйна върху дейността на Диаманта ЕООД",
      "totalEur": 8234.34,
      "status": "В изпълнение (от дата на стартиране)",
      "contractNumber": "BG14MFOP001-5.024-0018",
      "programName": "Програма за морско дело и рибарство"
    },
    {
      "ekatte": "47096",
      "lat": 42.869777,
      "lon": 26.802144,
      "title": "Подкрепа за МСП, извършващи автобусни превози, за преодоляване на икономическите последствия от пандемията COVID-19",
      "totalEur": 7004.71,
      "status": "Приключен (към датата на приключване)",
      "contractNumber": "BG16RFOP002-2.091-0402",
      "programName": "Иновации и конкурентоспособност"
    },
    {
      "ekatte": "47096",
      "lat": 42.869777,
      "lon": 26.802144,
      "title": "Преодоляване недостига на средства и липсата на ликвидност, настъпили в резултат от епидемичния взрив от COVID-19",
      "totalEur": 5112.92,
      "status": "Приключен (към датата на приключване)",
      "contractNumber": "BG16RFOP002-2.073-16884",
      "programName": "Иновации и конкурентоспособност"
    },
    {
      "ekatte": "81582",
      "lat": 42.75543,
      "lon": 26.706418,
      "title": "Преодоляване недостига на средства и липсата на ликвидност, настъпили в резултат от епидемичния взрив от COVID-19",
      "totalEur": 5112.92,
      "status": "Приключен (към датата на приключване)",
      "contractNumber": "BG16RFOP002-2.073-23066",
      "programName": "Иновации и конкурентоспособност"
    },
    {
      "ekatte": "17909",
      "lat": 42.721614,
      "lon": 26.753919,
      "title": "Изграждане на дигитален клуб в Народно Читалище Христо Ботев - 1927г. в с. Грозден",
      "totalEur": 3592.94,
      "status": "Прекратен (към дата на прекратяване)",
      "contractNumber": "BG-RRP-1.024-1210",
      "programName": "Национален план за възстановяване и устойчивост"
    },
    {
      "ekatte": "56959",
      "lat": 42.8387,
      "lon": 26.846844,
      "title": "„Възстановяване на съществуваща сграда за нуждите на овцеферма, закупуване на оборудване за овцеферма и земеделска техника за нуждите на животновъден обект в УПИ II, кв.61 по плана на с.Подвис, общ.Сунгурларе и изграждане на торохранилище в имот № 120089м „Купена Сърт“ в с. Подвис, общ.Сунгурларе“",
      "totalEur": 0,
      "status": "Прекратен (към дата на прекратяване)",
      "contractNumber": "BG06RDNP001-4.012-1283",
      "programName": "Програма за развитие на селските райони"
    },
    {
      "ekatte": "17909",
      "lat": 42.721614,
      "lon": 26.753919,
      "title": "Създаване на трайно насаждение от ябълки, система за защита от градушки, птици и насекоми в едно с опорна конструкция, закупуване на специализирана земеделска техника и оборудване, изграждане на нова и подмяна и автоматизиране на съществуваща система за капково напояване.",
      "totalEur": 0,
      "status": "Прекратен (към дата на прекратяване)",
      "contractNumber": "BG06RDNP001-4.012-1661",
      "programName": "Програма за развитие на селските райони"
    },
    {
      "ekatte": "17909",
      "lat": 42.721614,
      "lon": 26.753919,
      "title": "Създаване на трайно насаждение от ябълки в едно със система за защита от градушки, птици и насекоми, закупуване на специализирана земеделска техника и оборудване, и изграждане, подмяна и автоматизиране на съществуваща система за капково напояване.",
      "totalEur": 0,
      "status": "Прекратен (към дата на прекратяване)",
      "contractNumber": "BG06RDNP001-4.012-1868",
      "programName": "Програма за развитие на селските райони"
    },
    {
      "ekatte": "17909",
      "lat": 42.721614,
      "lon": 26.753919,
      "title": "Създаване на трайни насаждения от ябълки в едно със система за защита от градушки, птици и насекоми, закупуване на специализирана земеделска техника и оборудване, изграждане и автоматизиране на система за капково напояване и торене, система за предпазване от измръзване чрез дъждуване на трайни насаждения кайсия.",
      "totalEur": 0,
      "status": "Прекратен (към дата на прекратяване)",
      "contractNumber": "BG06RDNP001-4.012-1990",
      "programName": "Програма за развитие на селските райони"
    },
    {
      "ekatte": "17909",
      "lat": 42.721614,
      "lon": 26.753919,
      "title": "Стартова помощ за ЗП Ленко Пенев",
      "totalEur": 0,
      "status": "Прекратен (към дата на прекратяване)",
      "contractNumber": "BG06RDNP001-6.011-0191",
      "programName": "Програма за развитие на селските райони"
    }
  ]
}
