{
  "obshtina": "HKV18",
  "generatedAt": "2026-05-29T08:31:39.450Z",
  "sourceContractCount": 36,
  "geocodedCount": 28,
  "contracts": [
    {
      "contractNumber": "BG-RRP-7.008-0004",
      "title": "Широкомащабно разгръщане на цифрова инфраструктура на територията на България от Националния план за въстановяване и устойчивост (НПВУ) на Република България - Южен централен район за планиране",
      "totalEur": 41520255.34,
      "status": "В изпълнение (от дата на стартиране)",
      "programName": "Национален план за възстановяване и устойчивост"
    },
    {
      "contractNumber": "BG06RDNP001-4.015-0453",
      "title": "Модернизация на месопреработвателно предприятие на Боримес ООД",
      "totalEur": 1997334.02,
      "status": "Сключен",
      "programName": "Програма за развитие на селските райони",
      "ekatte": "06584",
      "lat": 41.582467,
      "lon": 25.93552
    },
    {
      "contractNumber": "BG06RDNP001-7.002-0024",
      "title": "Реконструкция на прилежащ двор и изграждане на ограда в СУ „Димитър Маджаров”, гр. Маджарово",
      "totalEur": 369925.93,
      "status": "Сключен",
      "programName": "Програма за развитие на селските райони",
      "ekatte": "46084",
      "lat": 41.6333,
      "lon": 25.8667
    },
    {
      "contractNumber": "BG05SFPR002-1.024-0003",
      "title": "Активиране, обучение и заетост на безработни и неактивни лица по подхода ИТИ в община Маджарово",
      "totalEur": 258758.28,
      "status": "В изпълнение (от дата на стартиране)",
      "programName": "Програма \"Развитие на човешките ресурси\" 2021-2027"
    },
    {
      "contractNumber": "BG05M9OP001-2.002-0278",
      "title": "ДОСТОЕН И НЕЗАВИСИМ ЖИВОТ",
      "totalEur": 244994.26,
      "status": "Приключен (към датата на приключване)",
      "programName": "Развитие на човешките ресурси",
      "ekatte": "46084",
      "lat": 41.6333,
      "lon": 25.8667
    },
    {
      "contractNumber": "BG-RRP-6.004-2430",
      "title": "Инвестиции в технологична и екологична модернизация на животновъдно стопанство",
      "totalEur": 219957.22,
      "status": "Сключен",
      "programName": "Национален план за възстановяване и устойчивост",
      "ekatte": "16907",
      "lat": 41.659592,
      "lon": 25.852406
    },
    {
      "contractNumber": "BG05SFPR002-1.035-0006",
      "title": "Повишаване на готовността на област Хасково за предотвратяване и овладяване на бедствия, пожари и извънредни ситуации",
      "totalEur": 211398.41,
      "status": "В изпълнение (от дата на стартиране)",
      "programName": "Програма \"Развитие на човешките ресурси\" 2021-2027"
    },
    {
      "contractNumber": "BG05SFPR002-2.005-0011",
      "title": "\"Шанс за достоен живот на хората в неравностойно положение от община Маджарово\"",
      "totalEur": 199958.81,
      "status": "Приключен (към датата на приключване)",
      "programName": "Програма \"Развитие на човешките ресурси\" 2021-2027"
    },
    {
      "contractNumber": "BG-RRP-6.004-1846",
      "title": "Инвестиции допринасящи за опазване на компонентите на околната среда и допринасятщи за устойчивото и цифрово икономическо възстановяване на земеделското стопанство",
      "totalEur": 180436.18,
      "status": "Сключен",
      "programName": "Национален план за възстановяване и устойчивост",
      "ekatte": "66233",
      "lat": 41.612445,
      "lon": 25.950744
    },
    {
      "contractNumber": "BG05SFPR002-2.001-0082",
      "title": "Грижа в дома в община Маджарово",
      "totalEur": 148756.26,
      "status": "Приключен (към датата на приключване)",
      "programName": "Програма \"Развитие на човешките ресурси\" 2021-2027"
    },
    {
      "contractNumber": "BG16FFPR002-3.011-0019",
      "title": "Подпомагане на популациите на египетски, черен и белоглав лешояд чрез предоставяне на допълнителни подхранвания на площадка за подхранване в защитена зона \"Маджарово\"(BG0002014)",
      "totalEur": 128312.38,
      "status": "В изпълнение (от дата на стартиране)",
      "programName": "Програма \"Околна среда\" 2021-2027",
      "ekatte": "46084",
      "lat": 41.6333,
      "lon": 25.8667
    },
    {
      "contractNumber": "BG-RRP-6.004-2126",
      "title": "Инвестиции в технологична и екологична модернизация за подобряване на цялостната дейност в земеделското стопанство",
      "totalEur": 117617.58,
      "status": "Сключен",
      "programName": "Национален план за възстановяване и устойчивост",
      "ekatte": "22375",
      "lat": 41.683573,
      "lon": 25.82371
    },
    {
      "contractNumber": "BG06RDNP001-4.008-0366",
      "title": "Закупуване на земеделска техника за нуждите на животновъдно стопанство",
      "totalEur": 103126.04,
      "status": "Сключен",
      "programName": "Програма за развитие на селските райони",
      "ekatte": "66233",
      "lat": 41.612445,
      "lon": 25.950744
    },
    {
      "contractNumber": "BG-RRP-6.004-1039",
      "title": "Внедряване на технологична и екологична модернизация в животновъдното стопанство на земеделския производител Делчо Грозев Делчев",
      "totalEur": 102565.16,
      "status": "Сключен",
      "programName": "Национален план за възстановяване и устойчивост",
      "ekatte": "31173",
      "lat": 41.712461,
      "lon": 25.797414
    },
    {
      "contractNumber": "BG-RRP-1.015-0586",
      "title": "Изграждане на училищна STEM среда в Средно училище \"Димитър Маджаров\", гр. Маджарово",
      "totalEur": 92115.94,
      "status": "Приключен (към датата на приключване)",
      "programName": "Национален план за възстановяване и устойчивост",
      "ekatte": "46084",
      "lat": 41.6333,
      "lon": 25.8667
    },
    {
      "contractNumber": "BG-RRP-6.004-2124",
      "title": "Инвестиции в технологична и екологична модернизация за подобряване на цялостната дейност в земеделското стопанство",
      "totalEur": 92032.55,
      "status": "Сключен",
      "programName": "Национален план за възстановяване и устойчивост",
      "ekatte": "66086",
      "lat": 41.70921,
      "lon": 25.838462
    },
    {
      "contractNumber": "BG06RDNP001-4.008-0104",
      "title": "Закупуване на специализирана земеделска техника за работа в рамките на животновъдно стопанство",
      "totalEur": 82318,
      "status": "Сключен",
      "programName": "Програма за развитие на селските райони",
      "ekatte": "31173",
      "lat": 41.712461,
      "lon": 25.797414
    },
    {
      "contractNumber": "BG-RRP-13.009-0123",
      "title": "Закупуване на електрическо превозно средство, включително свързана зарядна станция за предоставяне на социални услуги в община Маджарово",
      "totalEur": 58082.76,
      "status": "В изпълнение (от дата на стартиране)",
      "programName": "Национален план за възстановяване и устойчивост",
      "ekatte": "46084",
      "lat": 41.6333,
      "lon": 25.8667
    },
    {
      "contractNumber": "BG-RRP-11.020-0084",
      "title": "\"Стъпки в пясъка\" представя: Код 359 - Музикални пощенски картички",
      "totalEur": 54452.04,
      "status": "В изпълнение (от дата на стартиране)",
      "programName": "Национален план за възстановяване и устойчивост"
    },
    {
      "contractNumber": "BG06RDNP001-7.007-0072",
      "title": "Реконструкция на спортна площадка в СУ „Димитър Маджаров”, гр. Маджарово",
      "totalEur": 41878.93,
      "status": "Сключен",
      "programName": "Програма за развитие на селските райони",
      "ekatte": "46084",
      "lat": 41.6333,
      "lon": 25.8667
    },
    {
      "contractNumber": "BG-RRP-6.004-2768",
      "title": "Закупуване на земеделска техника за животновъдно стопанство",
      "totalEur": 39451.28,
      "status": "Сключен",
      "programName": "Национален план за възстановяване и устойчивост",
      "ekatte": "05503",
      "lat": 41.659919,
      "lon": 25.925295
    },
    {
      "contractNumber": "BG05FMOP001-5.001-0220",
      "title": "Топъл обяд в условията на пандемията от COVID-19 в община Маджарово, област Хасково",
      "totalEur": 33255.95,
      "status": "Приключен (към датата на приключване)",
      "programName": "Oперативна програма за храни и/или основно материално подпомагане"
    },
    {
      "contractNumber": "BG06RDNP001-6.001-0312",
      "title": "Подмярка 6.1 \"Стартова помощ за млади земеделски стопани\" от мярка 6 \"Развитие на стопанства и предприятия\" от Програмата за развитие на селските райони за периода 2014 - 2020 г.",
      "totalEur": 24999.63,
      "status": "Сключен",
      "programName": "Програма за развитие на селските райони",
      "ekatte": "46557",
      "lat": 41.694521,
      "lon": 25.891315
    },
    {
      "contractNumber": "BG06RDNP001-6.001-0571",
      "title": "Подмярка 6.1 \"Стартова помощ за млади земеделски стопани\" от мярка 6 \"Развитие на стопанства и предприятия\" от Програмата за развитие на селските райони за периода 2014 - 2020 г.",
      "totalEur": 24999.63,
      "status": "Сключен",
      "programName": "Програма за развитие на селските райони",
      "ekatte": "16907",
      "lat": 41.659592,
      "lon": 25.852406
    },
    {
      "contractNumber": "BG06RDNP001-4.002-0129",
      "title": "Закупуване на специализирана земеделска техника за преминаване на стопанството от конвенционално към биологично производство",
      "totalEur": 19966.8,
      "status": "Сключен",
      "programName": "Програма за развитие на селските райони"
    },
    {
      "contractNumber": "BG06RDNP001-6.007-1139",
      "title": "Отглеждане и разрастване на пчелни семейства",
      "totalEur": 14999.78,
      "status": "Сключен",
      "programName": "Програма за развитие на селските райони",
      "ekatte": "22375",
      "lat": 41.683573,
      "lon": 25.82371
    },
    {
      "contractNumber": "BG06RDNP001-6.007-1276",
      "title": "Отглеждане на пчелни семейства",
      "totalEur": 14999.77,
      "status": "Сключен",
      "programName": "Програма за развитие на селските райони",
      "ekatte": "72792",
      "lat": 41.676932,
      "lon": 25.771589
    },
    {
      "contractNumber": "BG06RDNP001-6.007-2390",
      "title": "Отглеждане и разрастване на пчелни семейства",
      "totalEur": 14999.77,
      "status": "Сключен",
      "programName": "Програма за развитие на селските райони",
      "ekatte": "16907",
      "lat": 41.659592,
      "lon": 25.852406
    },
    {
      "contractNumber": "BG06RDNP001-6.012-0600",
      "title": "Подпомагане развитието на стопанството на земеделски стопанин Семин Недретин Варетин",
      "totalEur": 14999.77,
      "status": "Сключен",
      "programName": "Програма за развитие на селските райони",
      "ekatte": "22856",
      "lat": 41.70968,
      "lon": 25.741904
    },
    {
      "contractNumber": "BG06RDNP001-6.012-0808",
      "title": "ОТГЛЕЖДАНЕ НА ТРАЙНИ НАСАЖДЕНИЯ И ЕСТЕСТВЕНИ ЛИВАДИ",
      "totalEur": 14999.77,
      "status": "Сключен",
      "programName": "Програма за развитие на селските райони",
      "ekatte": "22856",
      "lat": 41.70968,
      "lon": 25.741904
    },
    {
      "contractNumber": "BG-RRP-1.024-0570",
      "title": "Изграждане на дигитален клуб в град Маджарово",
      "totalEur": 14316.18,
      "status": "В изпълнение (от дата на стартиране)",
      "programName": "Национален план за възстановяване и устойчивост",
      "ekatte": "46084",
      "lat": 41.6333,
      "lon": 25.8667
    },
    {
      "contractNumber": "BG16RFOP002-2.073-27443",
      "title": "Преодоляване недостига на средства и липсата на ликвидност, настъпили в резултат от епидемичния взрив от COVID-19",
      "totalEur": 2752.8,
      "status": "Приключен (към датата на приключване)",
      "programName": "Иновации и конкурентоспособност",
      "ekatte": "46499",
      "lat": 41.669916,
      "lon": 25.952314
    },
    {
      "contractNumber": "BG16RFOP002-2.073-27475",
      "title": "Преодоляване недостига на средства и липсата на ликвидност, настъпили в резултат от епидемичния взрив от COVID-19",
      "totalEur": 2491.53,
      "status": "Приключен (към датата на приключване)",
      "programName": "Иновации и конкурентоспособност",
      "ekatte": "46084",
      "lat": 41.6333,
      "lon": 25.8667
    },
    {
      "contractNumber": "BG16RFOP002-2.073-26643",
      "title": "Преодоляване недостига на средства и липсата на ликвидност, настъпили в резултат от епидемичния взрив от COVID-19",
      "totalEur": 1953.13,
      "status": "Приключен (към датата на приключване)",
      "programName": "Иновации и конкурентоспособност",
      "ekatte": "05503",
      "lat": 41.659919,
      "lon": 25.925295
    },
    {
      "contractNumber": "BG06RDNP001-4.008-0098",
      "title": "Пристройка и разширение на животновъден обект",
      "totalEur": 0,
      "status": "Прекратен (към дата на прекратяване)",
      "programName": "Програма за развитие на селските райони",
      "ekatte": "63584",
      "lat": 41.681677,
      "lon": 25.75931
    },
    {
      "contractNumber": "BG06RDNP001-6.001-1243",
      "title": "Отглеждане на пчелни семейства.",
      "totalEur": 0,
      "status": "Прекратен (към дата на прекратяване)",
      "programName": "Програма за развитие на селските райони",
      "ekatte": "66086",
      "lat": 41.70921,
      "lon": 25.838462
    }
  ]
}
