{
  "obshtina": "HKV18",
  "generatedAt": "2026-05-28T09:44:39.810Z",
  "sourceContractCount": 36,
  "geocodedCount": 28,
  "pins": [
    {
      "ekatte": "06584",
      "lat": 41.582467,
      "lon": 25.93552,
      "title": "Модернизация на месопреработвателно предприятие на Боримес ООД",
      "totalEur": 1997334.02,
      "status": "Сключен",
      "contractNumber": "BG06RDNP001-4.015-0453",
      "programName": "Програма за развитие на селските райони"
    },
    {
      "ekatte": "46084",
      "lat": 41.6333,
      "lon": 25.8667,
      "title": "Реконструкция на прилежащ двор и изграждане на ограда в СУ „Димитър Маджаров”, гр. Маджарово",
      "totalEur": 369925.93,
      "status": "Сключен",
      "contractNumber": "BG06RDNP001-7.002-0024",
      "programName": "Програма за развитие на селските райони"
    },
    {
      "ekatte": "46084",
      "lat": 41.6333,
      "lon": 25.8667,
      "title": "ДОСТОЕН И НЕЗАВИСИМ ЖИВОТ",
      "totalEur": 244994.26,
      "status": "Приключен (към датата на приключване)",
      "contractNumber": "BG05M9OP001-2.002-0278",
      "programName": "Развитие на човешките ресурси"
    },
    {
      "ekatte": "16907",
      "lat": 41.659592,
      "lon": 25.852406,
      "title": "Инвестиции в технологична и екологична модернизация на животновъдно стопанство",
      "totalEur": 219957.22,
      "status": "Сключен",
      "contractNumber": "BG-RRP-6.004-2430",
      "programName": "Национален план за възстановяване и устойчивост"
    },
    {
      "ekatte": "66233",
      "lat": 41.612445,
      "lon": 25.950744,
      "title": "Инвестиции допринасящи за опазване на компонентите на околната среда и допринасятщи за устойчивото и цифрово икономическо възстановяване на земеделското стопанство",
      "totalEur": 180436.18,
      "status": "Сключен",
      "contractNumber": "BG-RRP-6.004-1846",
      "programName": "Национален план за възстановяване и устойчивост"
    },
    {
      "ekatte": "46084",
      "lat": 41.6333,
      "lon": 25.8667,
      "title": "Подпомагане на популациите на египетски, черен и белоглав лешояд чрез предоставяне на допълнителни подхранвания на площадка за подхранване в защитена зона \"Маджарово\"(BG0002014)",
      "totalEur": 128312.38,
      "status": "В изпълнение (от дата на стартиране)",
      "contractNumber": "BG16FFPR002-3.011-0019",
      "programName": "Програма \"Околна среда\" 2021-2027"
    },
    {
      "ekatte": "22375",
      "lat": 41.683573,
      "lon": 25.82371,
      "title": "Инвестиции в технологична и екологична модернизация за подобряване на цялостната дейност в земеделското стопанство",
      "totalEur": 117617.58,
      "status": "Сключен",
      "contractNumber": "BG-RRP-6.004-2126",
      "programName": "Национален план за възстановяване и устойчивост"
    },
    {
      "ekatte": "66233",
      "lat": 41.612445,
      "lon": 25.950744,
      "title": "Закупуване на земеделска техника за нуждите на животновъдно стопанство",
      "totalEur": 103126.04,
      "status": "Сключен",
      "contractNumber": "BG06RDNP001-4.008-0366",
      "programName": "Програма за развитие на селските райони"
    },
    {
      "ekatte": "31173",
      "lat": 41.712461,
      "lon": 25.797414,
      "title": "Внедряване на технологична и екологична модернизация в животновъдното стопанство на земеделския производител Делчо Грозев Делчев",
      "totalEur": 102565.16,
      "status": "Сключен",
      "contractNumber": "BG-RRP-6.004-1039",
      "programName": "Национален план за възстановяване и устойчивост"
    },
    {
      "ekatte": "46084",
      "lat": 41.6333,
      "lon": 25.8667,
      "title": "Изграждане на училищна STEM среда в Средно училище \"Димитър Маджаров\", гр. Маджарово",
      "totalEur": 92115.94,
      "status": "Приключен (към датата на приключване)",
      "contractNumber": "BG-RRP-1.015-0586",
      "programName": "Национален план за възстановяване и устойчивост"
    },
    {
      "ekatte": "66086",
      "lat": 41.70921,
      "lon": 25.838462,
      "title": "Инвестиции в технологична и екологична модернизация за подобряване на цялостната дейност в земеделското стопанство",
      "totalEur": 92032.55,
      "status": "Сключен",
      "contractNumber": "BG-RRP-6.004-2124",
      "programName": "Национален план за възстановяване и устойчивост"
    },
    {
      "ekatte": "31173",
      "lat": 41.712461,
      "lon": 25.797414,
      "title": "Закупуване на специализирана земеделска техника за работа в рамките на животновъдно стопанство",
      "totalEur": 82318,
      "status": "Сключен",
      "contractNumber": "BG06RDNP001-4.008-0104",
      "programName": "Програма за развитие на селските райони"
    },
    {
      "ekatte": "46084",
      "lat": 41.6333,
      "lon": 25.8667,
      "title": "Закупуване на електрическо превозно средство, включително свързана зарядна станция за предоставяне на социални услуги в община Маджарово",
      "totalEur": 58082.76,
      "status": "В изпълнение (от дата на стартиране)",
      "contractNumber": "BG-RRP-13.009-0123",
      "programName": "Национален план за възстановяване и устойчивост"
    },
    {
      "ekatte": "46084",
      "lat": 41.6333,
      "lon": 25.8667,
      "title": "Реконструкция на спортна площадка в СУ „Димитър Маджаров”, гр. Маджарово",
      "totalEur": 41878.93,
      "status": "Сключен",
      "contractNumber": "BG06RDNP001-7.007-0072",
      "programName": "Програма за развитие на селските райони"
    },
    {
      "ekatte": "05503",
      "lat": 41.659919,
      "lon": 25.925295,
      "title": "Закупуване на земеделска техника за животновъдно стопанство",
      "totalEur": 39451.28,
      "status": "Сключен",
      "contractNumber": "BG-RRP-6.004-2768",
      "programName": "Национален план за възстановяване и устойчивост"
    },
    {
      "ekatte": "46557",
      "lat": 41.694521,
      "lon": 25.891315,
      "title": "Подмярка 6.1 \"Стартова помощ за млади земеделски стопани\" от мярка 6 \"Развитие на стопанства и предприятия\" от Програмата за развитие на селските райони за периода 2014 - 2020 г.",
      "totalEur": 24999.63,
      "status": "Сключен",
      "contractNumber": "BG06RDNP001-6.001-0312",
      "programName": "Програма за развитие на селските райони"
    },
    {
      "ekatte": "16907",
      "lat": 41.659592,
      "lon": 25.852406,
      "title": "Подмярка 6.1 \"Стартова помощ за млади земеделски стопани\" от мярка 6 \"Развитие на стопанства и предприятия\" от Програмата за развитие на селските райони за периода 2014 - 2020 г.",
      "totalEur": 24999.63,
      "status": "Сключен",
      "contractNumber": "BG06RDNP001-6.001-0571",
      "programName": "Програма за развитие на селските райони"
    },
    {
      "ekatte": "22375",
      "lat": 41.683573,
      "lon": 25.82371,
      "title": "Отглеждане и разрастване на пчелни семейства",
      "totalEur": 14999.78,
      "status": "Сключен",
      "contractNumber": "BG06RDNP001-6.007-1139",
      "programName": "Програма за развитие на селските райони"
    },
    {
      "ekatte": "72792",
      "lat": 41.676932,
      "lon": 25.771589,
      "title": "Отглеждане на пчелни семейства",
      "totalEur": 14999.77,
      "status": "Сключен",
      "contractNumber": "BG06RDNP001-6.007-1276",
      "programName": "Програма за развитие на селските райони"
    },
    {
      "ekatte": "16907",
      "lat": 41.659592,
      "lon": 25.852406,
      "title": "Отглеждане и разрастване на пчелни семейства",
      "totalEur": 14999.77,
      "status": "Сключен",
      "contractNumber": "BG06RDNP001-6.007-2390",
      "programName": "Програма за развитие на селските райони"
    },
    {
      "ekatte": "22856",
      "lat": 41.70968,
      "lon": 25.741904,
      "title": "Подпомагане развитието на стопанството на земеделски стопанин Семин Недретин Варетин",
      "totalEur": 14999.77,
      "status": "Сключен",
      "contractNumber": "BG06RDNP001-6.012-0600",
      "programName": "Програма за развитие на селските райони"
    },
    {
      "ekatte": "22856",
      "lat": 41.70968,
      "lon": 25.741904,
      "title": "ОТГЛЕЖДАНЕ НА ТРАЙНИ НАСАЖДЕНИЯ И ЕСТЕСТВЕНИ ЛИВАДИ",
      "totalEur": 14999.77,
      "status": "Сключен",
      "contractNumber": "BG06RDNP001-6.012-0808",
      "programName": "Програма за развитие на селските райони"
    },
    {
      "ekatte": "46084",
      "lat": 41.6333,
      "lon": 25.8667,
      "title": "Изграждане на дигитален клуб в град Маджарово",
      "totalEur": 14316.18,
      "status": "В изпълнение (от дата на стартиране)",
      "contractNumber": "BG-RRP-1.024-0570",
      "programName": "Национален план за възстановяване и устойчивост"
    },
    {
      "ekatte": "46499",
      "lat": 41.669916,
      "lon": 25.952314,
      "title": "Преодоляване недостига на средства и липсата на ликвидност, настъпили в резултат от епидемичния взрив от COVID-19",
      "totalEur": 2752.8,
      "status": "Приключен (към датата на приключване)",
      "contractNumber": "BG16RFOP002-2.073-27443",
      "programName": "Иновации и конкурентоспособност"
    },
    {
      "ekatte": "46084",
      "lat": 41.6333,
      "lon": 25.8667,
      "title": "Преодоляване недостига на средства и липсата на ликвидност, настъпили в резултат от епидемичния взрив от COVID-19",
      "totalEur": 2491.53,
      "status": "Приключен (към датата на приключване)",
      "contractNumber": "BG16RFOP002-2.073-27475",
      "programName": "Иновации и конкурентоспособност"
    },
    {
      "ekatte": "05503",
      "lat": 41.659919,
      "lon": 25.925295,
      "title": "Преодоляване недостига на средства и липсата на ликвидност, настъпили в резултат от епидемичния взрив от COVID-19",
      "totalEur": 1953.13,
      "status": "Приключен (към датата на приключване)",
      "contractNumber": "BG16RFOP002-2.073-26643",
      "programName": "Иновации и конкурентоспособност"
    },
    {
      "ekatte": "63584",
      "lat": 41.681677,
      "lon": 25.75931,
      "title": "Пристройка и разширение на животновъден обект",
      "totalEur": 0,
      "status": "Прекратен (към дата на прекратяване)",
      "contractNumber": "BG06RDNP001-4.008-0098",
      "programName": "Програма за развитие на селските райони"
    },
    {
      "ekatte": "66086",
      "lat": 41.70921,
      "lon": 25.838462,
      "title": "Отглеждане на пчелни семейства.",
      "totalEur": 0,
      "status": "Прекратен (към дата на прекратяване)",
      "contractNumber": "BG06RDNP001-6.001-1243",
      "programName": "Програма за развитие на селските райони"
    }
  ]
}
