{
  "obshtina": "SLS15",
  "generatedAt": "2026-05-28T09:44:40.151Z",
  "sourceContractCount": 46,
  "geocodedCount": 33,
  "pins": [
    {
      "ekatte": "68357",
      "lat": 43.9333,
      "lon": 27.4333,
      "title": "Изграждане на Център за високи постижения в професионалното образование и обучение в Професионална гимназия по механизация на селското стопанство \"Никола Вапцаров\" с. Средище",
      "totalEur": 1767732.13,
      "status": "В изпълнение (от дата на стартиране)",
      "contractNumber": "BG-RRP-1.014-0020",
      "programName": "Национален план за възстановяване и устойчивост"
    },
    {
      "ekatte": "35242",
      "lat": 43.992349,
      "lon": 27.50394,
      "title": "„Център за достъп до услуги“ - Кайнарджа",
      "totalEur": 1167330.49,
      "status": "В изпълнение (от дата на стартиране)",
      "contractNumber": "ZOVII-1.001-0005",
      "programName": "Програма „Здраве и образование за всички“ (Зов II)"
    },
    {
      "ekatte": "68357",
      "lat": 43.9333,
      "lon": 27.4333,
      "title": "Закупуване на земеделска техника за модерно земеделие",
      "totalEur": 845870.56,
      "status": "Сключен",
      "contractNumber": "BG06RDNP001-4.012-1714",
      "programName": "Програма за развитие на селските райони"
    },
    {
      "ekatte": "68357",
      "lat": 43.9333,
      "lon": 27.4333,
      "title": "Утвърждаване водещата роля на Център за високи постижения при ПГМСС \"Н.Вапцаров\", с. Средище в развитието на професионалното образование и обучение в региона чрез предоставяне на качествено, иновативно и привлекателно професионално образование, формиращо умения на настоящето и бъдещето, в съответствие с динамично променящите се потребности на пазара на труда.",
      "totalEur": 785628.6,
      "status": "В изпълнение (от дата на стартиране)",
      "contractNumber": "BG05SFPR001-3.009-0013",
      "programName": "Програма \"Образование\" 2021-2027"
    },
    {
      "ekatte": "68357",
      "lat": 43.9333,
      "lon": 27.4333,
      "title": "Изграждане, оборудване и обзавеждане на нов учебен корпус на Професионална гимназия по механизация на селското стопанство „ Н. Й. Вапцаров” с.Средище, община Кайнарджа по Оперативна програма „Региони в растеж“ 2014-2020 г.",
      "totalEur": 664679.36,
      "status": "Приключен (към датата на приключване)",
      "contractNumber": "BG16RFOP001-3.002-0022",
      "programName": "Региони в растеж"
    },
    {
      "ekatte": "68357",
      "lat": 43.9333,
      "lon": 27.4333,
      "title": "Технологична и екологична модернизация при отглеждане на трайни насаждения",
      "totalEur": 466869.46,
      "status": "Сключен",
      "contractNumber": "BG-RRP-6.004-3451",
      "programName": "Национален план за възстановяване и устойчивост"
    },
    {
      "ekatte": "57724",
      "lat": 43.900303,
      "lon": 27.417609,
      "title": "Технологична модернизация на кравеферма",
      "totalEur": 307365.85,
      "status": "Сключен",
      "contractNumber": "BG-RRP-6.004-1476",
      "programName": "Национален план за възстановяване и устойчивост"
    },
    {
      "ekatte": "11990",
      "lat": 43.975134,
      "lon": 27.441868,
      "title": "ИНВЕСТИЦИЯ В МАТЕРИАЛНИ АКТИВИ С ЦЕЛ ПОДОБРЯВАНЕ КАЧЕСТВОТО НА ПРОИЗВЕЖДАНИТЕ ЗЕМЕДЕЛСКИ КУЛТУРИ И УСЛОВИЯТА ЗА ПРОИЗВОДСТВО НА \"ЗЕМЕДЕЛСКА ТЕХНИКА\" ООД",
      "totalEur": 299152.85,
      "status": "Сключен",
      "contractNumber": "BG06RDNP001-4.012-0749",
      "programName": "Програма за развитие на селските райони"
    },
    {
      "ekatte": "11990",
      "lat": 43.975134,
      "lon": 27.441868,
      "title": "Закупуване на иновативна земеделска техника",
      "totalEur": 291219.35,
      "status": "Сключен",
      "contractNumber": "BG06RDNP001-4.012-0008",
      "programName": "Програма за развитие на селските райони"
    },
    {
      "ekatte": "35242",
      "lat": 43.992349,
      "lon": 27.50394,
      "title": "Активизиране на младежи от община Кайнарджа",
      "totalEur": 146909.5,
      "status": "Приключен (към датата на приключване)",
      "contractNumber": "BG05M9OP001-1.002-0039",
      "programName": "Развитие на човешките ресурси"
    },
    {
      "ekatte": "68357",
      "lat": 43.9333,
      "lon": 27.4333,
      "title": "Изграждане на училищен STEM център",
      "totalEur": 126926.58,
      "status": "В изпълнение (от дата на стартиране)",
      "contractNumber": "BG-RRP-1.015-1398",
      "programName": "Национален план за възстановяване и устойчивост"
    },
    {
      "ekatte": "35242",
      "lat": 43.992349,
      "lon": 27.50394,
      "title": "Технологична и екологична модернизация на Винарска изба \"КАЙНАРДЖА\"",
      "totalEur": 126409.74,
      "status": "Сключен",
      "contractNumber": "BG-RRP-6.004-2014",
      "programName": "Национален план за възстановяване и устойчивост"
    },
    {
      "ekatte": "15566",
      "lat": 43.953725,
      "lon": 27.614238,
      "title": "Изграждане на училищна STEM среда в Основно училище „Васил Априлов“, с. Голеш",
      "totalEur": 92841.28,
      "status": "Приключен (към датата на приключване)",
      "contractNumber": "BG-RRP-1.015-0402",
      "programName": "Национален план за възстановяване и устойчивост"
    },
    {
      "ekatte": "68357",
      "lat": 43.9333,
      "lon": 27.4333,
      "title": "Училищна STEM среда",
      "totalEur": 91169.85,
      "status": "В изпълнение (от дата на стартиране)",
      "contractNumber": "BG-RRP-1.015-1104",
      "programName": "Национален план за възстановяване и устойчивост"
    },
    {
      "ekatte": "35242",
      "lat": 43.992349,
      "lon": 27.50394,
      "title": "Топъл обяд за гражданите на Община Кайнарджа",
      "totalEur": 70825.67,
      "status": "Приключен (към датата на приключване)",
      "contractNumber": "BG05FMOP001-3.002-0235",
      "programName": "Oперативна програма за храни и/или основно материално подпомагане"
    },
    {
      "ekatte": "35242",
      "lat": 43.992349,
      "lon": 27.50394,
      "title": "Ново поколение местна политика за култура на Община Кайнарджа, област Силистра",
      "totalEur": 69024.4,
      "status": "В изпълнение (от дата на стартиране)",
      "contractNumber": "BG-RRP-11.022-0053",
      "programName": "Национален план за възстановяване и устойчивост"
    },
    {
      "ekatte": "35242",
      "lat": 43.992349,
      "lon": 27.50394,
      "title": "Изграждане на училищна STEM среда и високотехнологични оборудвани и свързани класни стаи (ВОСКС) в СУ \"Черноризец Храбър\", Кайнарджа",
      "totalEur": 68837.62,
      "status": "В изпълнение (от дата на стартиране)",
      "contractNumber": "BG-RRP-1.015-0894",
      "programName": "Национален план за възстановяване и устойчивост"
    },
    {
      "ekatte": "57889",
      "lat": 43.867525,
      "lon": 27.422491,
      "title": "Инвестиции за производство на собствен фураж",
      "totalEur": 68085,
      "status": "Сключен",
      "contractNumber": "BG06RDNP001-4.008-0001",
      "programName": "Програма за развитие на селските райони"
    },
    {
      "ekatte": "11990",
      "lat": 43.975134,
      "lon": 27.441868,
      "title": "Инвестиции в технологична и екологична модернизация-отглеждане на сливи",
      "totalEur": 61355.03,
      "status": "Сключен",
      "contractNumber": "BG-RRP-6.004-0381",
      "programName": "Национален план за възстановяване и устойчивост"
    },
    {
      "ekatte": "35242",
      "lat": 43.992349,
      "lon": 27.50394,
      "title": "Закупуване на електрическо превозно средство и свързана зарядна станция за целите на предоставяните социални услуги на територията на община Кайнарджа",
      "totalEur": 58082.76,
      "status": "В изпълнение (от дата на стартиране)",
      "contractNumber": "BG-RRP-13.009-0011",
      "programName": "Национален план за възстановяване и устойчивост"
    },
    {
      "ekatte": "35242",
      "lat": 43.992349,
      "lon": 27.50394,
      "title": "Стопанство на Пламена Павлова за отглеждане на трайни насаждения - сливи и ябълки",
      "totalEur": 24999.62,
      "status": "Сключен",
      "contractNumber": "BG06RDNP001-6.001-1470",
      "programName": "Програма за развитие на селските райони"
    },
    {
      "ekatte": "15566",
      "lat": 43.953725,
      "lon": 27.614238,
      "title": "изграждане на дигитален клуб в Народно читалище Родина 1941 - с.Голеш",
      "totalEur": 17383.94,
      "status": "В изпълнение (от дата на стартиране)",
      "contractNumber": "BG-RRP-1.024-0345",
      "programName": "Национален план за възстановяване и устойчивост"
    },
    {
      "ekatte": "57724",
      "lat": 43.900303,
      "lon": 27.417609,
      "title": "Проектно предложение на Гергана Веселинова Думанова, производител на биологични пчелни продукти",
      "totalEur": 14999.77,
      "status": "Сключен",
      "contractNumber": "BG06RDNP001-6.007-1051",
      "programName": "Програма за развитие на селските райони"
    },
    {
      "ekatte": "68357",
      "lat": 43.9333,
      "lon": 27.4333,
      "title": "Развитие на малко стопанство",
      "totalEur": 14999.77,
      "status": "Сключен",
      "contractNumber": "BG06RDNP001-6.012-0076",
      "programName": "Програма за развитие на селските райони"
    },
    {
      "ekatte": "35938",
      "lat": 43.9333,
      "lon": 27.4333,
      "title": "Подпомагане развитието на стопанството на земеделски стопанин Павел Мариянов Симеонов",
      "totalEur": 14999.77,
      "status": "Сключен",
      "contractNumber": "BG06RDNP001-6.012-0591",
      "programName": "Програма за развитие на селските райони"
    },
    {
      "ekatte": "39462",
      "lat": 44.007027,
      "lon": 27.631374,
      "title": "Подпомагане устойчивостта на биологична пчеларска ферма",
      "totalEur": 14999.76,
      "status": "Сключен",
      "contractNumber": "BG06RDNP001-6.007-1792",
      "programName": "Програма за развитие на селските райони"
    },
    {
      "ekatte": "30346",
      "lat": 43.976144,
      "lon": 27.54344,
      "title": "Изграждане на дигитален клуб в Народно читалище НАДЕЖДА - 1943 Г. в с. Зарник",
      "totalEur": 14316.17,
      "status": "В изпълнение (от дата на стартиране)",
      "contractNumber": "BG-RRP-1.024-0749",
      "programName": "Национален план за възстановяване и устойчивост"
    },
    {
      "ekatte": "35242",
      "lat": 43.992349,
      "lon": 27.50394,
      "title": "Изграждане на мрежа от дигитални клубове в Народно читалище „Отец Паисий – 1942 г.“ с. Кайнарджа, община Кайнарджа, област Силистра.",
      "totalEur": 14314.99,
      "status": "В изпълнение (от дата на стартиране)",
      "contractNumber": "BG-RRP-1.024-0438",
      "programName": "Национален план за възстановяване и устойчивост"
    },
    {
      "ekatte": "65615",
      "lat": 43.953526,
      "lon": 27.510574,
      "title": "Преодоляване недостига на средства и липсата на ликвидност, настъпили в резултат от епидемичния взрив от COVID-19",
      "totalEur": 5112.92,
      "status": "Приключен (към датата на приключване)",
      "contractNumber": "BG16RFOP002-2.073-21133",
      "programName": "Иновации и конкурентоспособност"
    },
    {
      "ekatte": "39462",
      "lat": 44.007027,
      "lon": 27.631374,
      "title": "Преодоляване недостига на средства и липсата на ликвидност, настъпили в резултат от епидемичния взрив от COVID-19",
      "totalEur": 5112.92,
      "status": "Приключен (към датата на приключване)",
      "contractNumber": "BG16RFOP002-2.073-26651",
      "programName": "Иновации и конкурентоспособност"
    },
    {
      "ekatte": "65615",
      "lat": 43.953526,
      "lon": 27.510574,
      "title": "Преодоляване недостига на средства и липсата на ликвидност, настъпили в резултат от епидемичния взрив от COVID-19",
      "totalEur": 1738.39,
      "status": "Приключен (към датата на приключване)",
      "contractNumber": "BG16RFOP002-2.073-18192",
      "programName": "Иновации и конкурентоспособност"
    },
    {
      "ekatte": "35242",
      "lat": 43.992349,
      "lon": 27.50394,
      "title": "Топъл обяд в община Кайнарджа",
      "totalEur": 0,
      "status": "Прекратен (към дата на прекратяване)",
      "contractNumber": "BG05SFPR003-1.001-0182",
      "programName": "Програма \"Храни и основно материално подпомагане\" 2021-2027"
    },
    {
      "ekatte": "68357",
      "lat": 43.9333,
      "lon": 27.4333,
      "title": "Повишаване на конкурентоспособността на РУМИ-5 РУСЕВ, РАЛИЧКОВА И СИЕ СД ,чрез инвестиции в закупуване на земеделска техника.",
      "totalEur": 0,
      "status": "Прекратен (към дата на прекратяване)",
      "contractNumber": "BG06RDNP001-4.012-1122",
      "programName": "Програма за развитие на селските райони"
    }
  ]
}
