{
  "obshtina": "SLV16",
  "generatedAt": "2026-05-28T09:44:40.161Z",
  "sourceContractCount": 288,
  "geocodedCount": 235,
  "pins": [
    {
      "ekatte": "51809",
      "lat": 42.491242,
      "lon": 26.01253,
      "title": "Изграждане и въвеждане в експлоатация на ССЕЕ",
      "totalEur": 83999999.99,
      "status": "В изпълнение (от дата на стартиране)",
      "contractNumber": "BG-RRP-4.034-0053",
      "programName": "Национален план за възстановяване и устойчивост"
    },
    {
      "ekatte": "51809",
      "lat": 42.491242,
      "lon": 26.01253,
      "title": "„Индустриален парк Перла“ - създаване на технологичен парк с логистична и индустриална насоченост с осигуряване на по-добър достъп и свързаност на бизнеса в региона",
      "totalEur": 18320437.17,
      "status": "В изпълнение (от дата на стартиране)",
      "contractNumber": "BG16FFPR003-4.005-0019",
      "programName": "Програма \"Развитие на регионите\" 2021-2027"
    },
    {
      "ekatte": "02734",
      "lat": 42.606235,
      "lon": 25.991019,
      "title": "Интегриран проект за икономически растеж, развитие на туризма, зелена икономика, устойчива градска мобилност и опазване на околната среда в Югоизточен регион",
      "totalEur": 6416713.07,
      "status": "В изпълнение (от дата на стартиране)",
      "contractNumber": "BG16FFPR003-2.006-0014",
      "programName": "Програма \"Развитие на регионите\" 2021-2027"
    },
    {
      "ekatte": "51809",
      "lat": 42.491242,
      "lon": 26.01253,
      "title": "Нови технологии за предприятие за замразени зеленчуци \"ФРЕШФУУД\" ЕООД",
      "totalEur": 1990341.68,
      "status": "Сключен",
      "contractNumber": "BG06RDNP001-4.015-0346",
      "programName": "Програма за развитие на селските райони"
    },
    {
      "ekatte": "51809",
      "lat": 42.491242,
      "lon": 26.01253,
      "title": "Oборудване за енергийна ефективност, опазване на околната среда и иновации в предприятие за преработка на плодове и зеленчуци \"Мегахран 2015\" ЕООД",
      "totalEur": 1945452.84,
      "status": "Сключен",
      "contractNumber": "BG06RDNP001-4.015-0362",
      "programName": "Програма за развитие на селските райони"
    },
    {
      "ekatte": "51809",
      "lat": 42.491242,
      "lon": 26.01253,
      "title": "Oборудване за производство на нови артикули по енергийно-ефективни и водоспестяващи технологии в \"ДОСИ 2015\" ЕООД",
      "totalEur": 1429119.59,
      "status": "Сключен",
      "contractNumber": "BG06RDNP001-4.015-0276",
      "programName": "Програма за развитие на селските райони"
    },
    {
      "ekatte": "51809",
      "lat": 42.491242,
      "lon": 26.01253,
      "title": "Подобряване на енергийната ефективност в „БЛИЦ” ЕООД",
      "totalEur": 1093934.42,
      "status": "Приключен (към датата на приключване)",
      "contractNumber": "BG16RFOP002-3.001-0095",
      "programName": "Иновации и конкурентоспособност"
    },
    {
      "ekatte": "51809",
      "lat": 42.491242,
      "lon": 26.01253,
      "title": "Подкрепа на нови мощности за производство на електроенергия от възобновяеми източници и съхранение на електроенергия -Ю-рент ЕООД ( обект Нова Загора)",
      "totalEur": 1022379.25,
      "status": "В изпълнение (от дата на стартиране)",
      "contractNumber": "BG-RRP-4.032-0105",
      "programName": "Национален план за възстановяване и устойчивост"
    },
    {
      "ekatte": "02734",
      "lat": 42.606235,
      "lon": 25.991019,
      "title": "Mодернизиране на обект: „ОРАНЖЕРИЕН КОМПЛЕКС за производство на краставици и домати“ в УПИ III, кв. 15, по ПУП на с. Баня-вилна зона, община Нова Загора",
      "totalEur": 919466.56,
      "status": "Сключен",
      "contractNumber": "BG06RDNP001-4.012-1552",
      "programName": "Програма за развитие на селските райони"
    },
    {
      "ekatte": "51809",
      "lat": 42.491242,
      "lon": 26.01253,
      "title": "“Внедряване на иновативен продукт във фирма Милкотроник ООД - устройство за диференциално броене на микрочастици в биологични течности – „hand-held“ образен цитометър",
      "totalEur": 904598.05,
      "status": "Приключен (към датата на приключване)",
      "contractNumber": "BG16RFPR001-1.003-0180",
      "programName": "Програма \"Конкурентоспособност и иновации в предприятията\" 2021-2027"
    },
    {
      "ekatte": "36395",
      "lat": 42.512722,
      "lon": 25.908479,
      "title": "Внедряване в производство на иновативен процес \"Физико-химична модулна система за пречистване на води\".",
      "totalEur": 881262.68,
      "status": "Приключен (към датата на приключване)",
      "contractNumber": "BG16RFPR001-1.003-0516",
      "programName": "Програма \"Конкурентоспособност и иновации в предприятията\" 2021-2027"
    },
    {
      "ekatte": "02734",
      "lat": 42.606235,
      "lon": 25.991019,
      "title": "МОДЕРНИЗИРАНЕ И АВТОМАТИЗИРАНЕ ЧРЕЗ ИНОВАТИВНИ ТЕХНОЛОГИИ НА ОРАНЖЕРИЕН КОМПЛЕКС В С. БАНЯ-ВИЛНА ЗОНА, ОБЩИНА НОВА ЗАГОРА, ОБЛАСТ СЛИВЕН",
      "totalEur": 871581.35,
      "status": "Сключен",
      "contractNumber": "BG06RDNP001-4.012-1696",
      "programName": "Програма за развитие на селските райони"
    },
    {
      "ekatte": "51809",
      "lat": 42.491242,
      "lon": 26.01253,
      "title": "Реконструкция, модернизация и въвеждане на мерки за енергийна ефективност на територията на град Нова Загора - център",
      "totalEur": 864075.04,
      "status": "Приключен (към датата на приключване)",
      "contractNumber": "BG16RFOP001-2.001-0175",
      "programName": "Региони в растеж"
    },
    {
      "ekatte": "51809",
      "lat": 42.491242,
      "lon": 26.01253,
      "title": "Mодернизация и автоматизация на земеделското стопанство чрез внедряване на иновативни и съвременни технологии",
      "totalEur": 863952.22,
      "status": "Сключен",
      "contractNumber": "BG06RDNP001-4.012-0945",
      "programName": "Програма за развитие на селските райони"
    },
    {
      "ekatte": "51809",
      "lat": 42.491242,
      "lon": 26.01253,
      "title": "„Подобряване на енергийната ефективност в многофамилна жилищна сграда с адрес: гр. Нова Загора, ул. „Патриарх Евтимий“ бл. 19“.",
      "totalEur": 725819.66,
      "status": "В изпълнение (от дата на стартиране)",
      "contractNumber": "BG16FFPR003-4.001-0220",
      "programName": "Програма \"Развитие на регионите\" 2021-2027"
    },
    {
      "ekatte": "51809",
      "lat": 42.491242,
      "lon": 26.01253,
      "title": "Технологична модернизация в предприятието",
      "totalEur": 715297.34,
      "status": "Приключен (към датата на приключване)",
      "contractNumber": "BG-RRP-3.004-2046",
      "programName": "Национален план за възстановяване и устойчивост"
    },
    {
      "ekatte": "51809",
      "lat": 42.491242,
      "lon": 26.01253,
      "title": "Закупуване и инсталиране на оборудване и съоръжения за пречистване и съхраняване на отпадъчни и технологични води за последваща употреба в предприятието на \"ФРЕШФУУД\" ЕООД",
      "totalEur": 698087.26,
      "status": "Сключен",
      "contractNumber": "BG06RDNP001-4.018-0088",
      "programName": "Програма за развитие на селските райони"
    },
    {
      "ekatte": "51809",
      "lat": 42.491242,
      "lon": 26.01253,
      "title": "Подобряване на производствения капацитет на \"Милкотроник\" ООД",
      "totalEur": 695699.53,
      "status": "Приключен (към датата на приключване)",
      "contractNumber": "BG16RFOP002-2.040-0015",
      "programName": "Иновации и конкурентоспособност"
    },
    {
      "ekatte": "51809",
      "lat": 42.491242,
      "lon": 26.01253,
      "title": "Подобряване на енергийната ефективност на многофамилни жилищни сгради в гр. Нова Загора",
      "totalEur": 644830.77,
      "status": "Приключен (към датата на приключване)",
      "contractNumber": "BG16RFOP001-2.001-0067",
      "programName": "Региони в растеж"
    },
    {
      "ekatte": "51809",
      "lat": 42.491242,
      "lon": 26.01253,
      "title": "Инвестиции в съоръжения за пречистване и съхраняване на отпадъчни води в \"Мегахран 2015\" ЕООД",
      "totalEur": 637199.56,
      "status": "Сключен",
      "contractNumber": "BG06RDNP001-4.018-0092",
      "programName": "Програма за развитие на селските райони"
    },
    {
      "ekatte": "51809",
      "lat": 42.491242,
      "lon": 26.01253,
      "title": "Технологична модернизация в предприятието",
      "totalEur": 627224.24,
      "status": "Приключен (към датата на приключване)",
      "contractNumber": "BG-RRP-3.004-1958",
      "programName": "Национален план за възстановяване и устойчивост"
    },
    {
      "ekatte": "51809",
      "lat": 42.491242,
      "lon": 26.01253,
      "title": "Инвестиции във водоспестяващи и кръгови технологии за вторична употреба на вода в преработката и маркетинга на \"Доси\" ЕООД",
      "totalEur": 604244.74,
      "status": "Сключен",
      "contractNumber": "BG06RDNP001-4.018-0090",
      "programName": "Програма за развитие на селските райони"
    },
    {
      "ekatte": "51809",
      "lat": 42.491242,
      "lon": 26.01253,
      "title": "Основен ремонт на училищна база на ПГСС, гр. Нова Загора",
      "totalEur": 603525.02,
      "status": "Приключен (към датата на приключване)",
      "contractNumber": "BG16RFOP001-3.002-0010",
      "programName": "Региони в растеж"
    },
    {
      "ekatte": "51809",
      "lat": 42.491242,
      "lon": 26.01253,
      "title": "\"Въвеждане на мерки за енергийна ефективност на многофамилни жилищни сгради в гр. Нова Загора\"",
      "totalEur": 567937.36,
      "status": "Приключен (към датата на приключване)",
      "contractNumber": "BG16RFOP001-2.003-0009",
      "programName": "Региони в растеж"
    },
    {
      "ekatte": "51809",
      "lat": 42.491242,
      "lon": 26.01253,
      "title": "\"Подобряване на енергийната ефективност в многофамилна жилищна сграда с адрес: гр. Нова Загора, ж.к. \"Загоре\", бл. № 11\"",
      "totalEur": 520100.44,
      "status": "В изпълнение (от дата на стартиране)",
      "contractNumber": "BG16FFPR003-4.001-0217",
      "programName": "Програма \"Развитие на регионите\" 2021-2027"
    },
    {
      "ekatte": "51809",
      "lat": 42.491242,
      "lon": 26.01253,
      "title": "Модернизация на стопанството чрез инвестиции в поливни системи, прикачна техника и елементи от GPS системи за прецизно земеделие”",
      "totalEur": 517321.71,
      "status": "Сключен",
      "contractNumber": "BG06RDNP001-4.012-1027",
      "programName": "Програма за развитие на селските райони"
    },
    {
      "ekatte": "30171",
      "lat": 42.43436,
      "lon": 25.952053,
      "title": "Модернизация на овцевъдно стопанство в с. Загорци",
      "totalEur": 512378.06,
      "status": "Сключен",
      "contractNumber": "BG06RDNP001-4.012-0176",
      "programName": "Програма за развитие на селските райони"
    },
    {
      "ekatte": "51809",
      "lat": 42.491242,
      "lon": 26.01253,
      "title": "Разработване на иновативен продукт в МИЛКОТРОНИК ООД",
      "totalEur": 511291.88,
      "status": "В изпълнение (от дата на стартиране)",
      "contractNumber": "BG16RFPR001-1.001-0183",
      "programName": "Програма \"Конкурентоспособност и иновации в предприятията\" 2021-2027"
    },
    {
      "ekatte": "51809",
      "lat": 42.491242,
      "lon": 26.01253,
      "title": "Подобряване на производственият капацитет на “МИЛКОТРОНИК” ООД",
      "totalEur": 505500.49,
      "status": "Приключен (към датата на приключване)",
      "contractNumber": "BG16RFOP002-2.001-0896",
      "programName": "Иновации и конкурентоспособност"
    },
    {
      "ekatte": "04635",
      "lat": 42.395269,
      "lon": 25.993938,
      "title": "Закупуване на автоматизирана механизация и изграждане на автономна фотоволтаична електроцентрала с цел екологична и технологична модернизация на стопанството на АГРИ МИЛК ЕООД",
      "totalEur": 505218,
      "status": "Сключен",
      "contractNumber": "BG-RRP-6.004-3608",
      "programName": "Национален план за възстановяване и устойчивост"
    },
    {
      "ekatte": "38683",
      "lat": 42.544486,
      "lon": 25.996303,
      "title": "Повишаване на конкурентоспособността и биосигурносттана в животновъдна ферма",
      "totalEur": 499700,
      "status": "Сключен",
      "contractNumber": "BG06RDNP001-4.008-0211",
      "programName": "Програма за развитие на селските райони"
    },
    {
      "ekatte": "44505",
      "lat": 42.368137,
      "lon": 25.951166,
      "title": "„Реконструкция и преустройство на съществуваща стопанска сграда в краварник за 120 бр. животни, изграждане на торохранилище за течна оборска тор и закупуване на технологично оборудване и селскостопанска техника“",
      "totalEur": 497485.64,
      "status": "Сключен",
      "contractNumber": "BG06RDNP001-4.008-0617",
      "programName": "Програма за развитие на селските райони"
    },
    {
      "ekatte": "36395",
      "lat": 42.512722,
      "lon": 25.908479,
      "title": "Закупуване на поливна техника и оборудване за земеделско стопанство на „ГЕОКАР“ ЕООД",
      "totalEur": 449989.64,
      "status": "Сключен",
      "contractNumber": "BG06RDNP001-4.017-0129",
      "programName": "Програма за развитие на селските райони"
    },
    {
      "ekatte": "38426",
      "lat": 42.522331,
      "lon": 26.168187,
      "title": "Закупуване на поливни съоръжения за поливане на царевица в стопанството на “СЕМЕНА СИНХРОН” ООД, с. Коньово, общ. Нова Загора.",
      "totalEur": 449300,
      "status": "Сключен",
      "contractNumber": "BG06RDNP001-4.017-0074",
      "programName": "Програма за развитие на селските райони"
    },
    {
      "ekatte": "51809",
      "lat": 42.491242,
      "lon": 26.01253,
      "title": "„Закупуване на земеделска техника за стопанството на „ВЕЛКОМ 2002“ ЕООД в гр. Нова Загора“",
      "totalEur": 425088.07,
      "status": "Сключен",
      "contractNumber": "BG06RDNP001-4.012-1371",
      "programName": "Програма за развитие на селските райони"
    },
    {
      "ekatte": "38683",
      "lat": 42.544486,
      "lon": 25.996303,
      "title": "„Модернизация на производствено предприятие чрез инвестиции за околна среда – Автономно ВЕИ с мощност 115.9kW и батерия - 215kWh“",
      "totalEur": 401289.98,
      "status": "Сключен",
      "contractNumber": "BG06RDNP001-4.018-0198",
      "programName": "Програма за развитие на селските райони"
    },
    {
      "ekatte": "38683",
      "lat": 42.544486,
      "lon": 25.996303,
      "title": "Закупуване на земеделска техника за нуждите на земеделско стопанство в сeло Кортен.\"",
      "totalEur": 397611.24,
      "status": "Сключен",
      "contractNumber": "BG-RRP-6.004-3725",
      "programName": "Национален план за възстановяване и устойчивост"
    },
    {
      "ekatte": "51809",
      "lat": 42.491242,
      "lon": 26.01253,
      "title": "„Подобряване на енергийната ефективност в многофамилна жилищна сграда с адрес: гр. Нова Загора, ул. „Васил Левски“ бл. 84“",
      "totalEur": 381451.47,
      "status": "В изпълнение (от дата на стартиране)",
      "contractNumber": "BG16FFPR003-4.001-0218",
      "programName": "Програма \"Развитие на регионите\" 2021-2027"
    },
    {
      "ekatte": "39757",
      "lat": 42.543038,
      "lon": 25.882818,
      "title": "Закупуване на автоматизирана механизация с цел екологична и технологична модернизация на стопанството на АГРОПАРТНЕРС ООД",
      "totalEur": 357362,
      "status": "Сключен",
      "contractNumber": "BG-RRP-6.004-3707",
      "programName": "Национален план за възстановяване и устойчивост"
    },
    {
      "ekatte": "27245",
      "lat": 42.38539,
      "lon": 26.144813,
      "title": "Инвестиции в технологична и екологична модернизация в земеделското стопанство на НОВИ ЛОЗЯ-ЕЛЕНОВО ЕООД",
      "totalEur": 354820.57,
      "status": "Сключен",
      "contractNumber": "BG-RRP-6.004-1683",
      "programName": "Национален план за възстановяване и устойчивост"
    },
    {
      "ekatte": "69314",
      "lat": 42.462407,
      "lon": 25.985628,
      "title": "Закупуване на механизация с цел екологична и технологична модернизация на стопанството на ПЕНЕЛОПА АГРО ЕООД",
      "totalEur": 352528.7,
      "status": "Сключен",
      "contractNumber": "BG-RRP-6.004-3109",
      "programName": "Национален план за възстановяване и устойчивост"
    },
    {
      "ekatte": "51809",
      "lat": 42.491242,
      "lon": 26.01253,
      "title": "Повишаване на ефективността при потреблението на вода в стопанството на ЕТ ДИЯН ТАНЕВ - АГРОПЛОД",
      "totalEur": 344457.34,
      "status": "Сключен",
      "contractNumber": "BG06RDNP001-4.017-0209",
      "programName": "Програма за развитие на селските райони"
    },
    {
      "ekatte": "51809",
      "lat": 42.491242,
      "lon": 26.01253,
      "title": "\"Въвеждане на мерки за енергийна ефективност на многофамилна жилищна сграда с адрес: гр. Нова Загора, ул. \"Васил Левски\" бл. 34\"",
      "totalEur": 321973.64,
      "status": "В изпълнение (от дата на стартиране)",
      "contractNumber": "BG-RRP-4.023-2225",
      "programName": "Национален план за възстановяване и устойчивост"
    },
    {
      "ekatte": "51809",
      "lat": 42.491242,
      "lon": 26.01253,
      "title": "Подобряване на енергийната ефективност на предприятието с поставяне на Автономна фотоволтаична система на предприятието ИВА - КРИС ООД",
      "totalEur": 321243.15,
      "status": "Сключен",
      "contractNumber": "BG06RDNP001-4.018-0189",
      "programName": "Програма за развитие на селските райони"
    },
    {
      "ekatte": "30171",
      "lat": 42.43436,
      "lon": 25.952053,
      "title": "Закупуване на Поливна система - Лентова дъждовална поливна машина и Мобилна линейна пивотна система в с. Загорци, област Стара Загора",
      "totalEur": 304622.6,
      "status": "Сключен",
      "contractNumber": "BG06RDNP001-4.017-0035",
      "programName": "Програма за развитие на селските райони"
    },
    {
      "ekatte": "24760",
      "lat": 42.435263,
      "lon": 26.017907,
      "title": "ЗАКУПУВАНЕ НА ЗЕМЕДЕЛСКА ТЕХНИКА И ИНДУСТРИАЛНА СТАНЦИЯ ЗА НУЖДИТЕ НА ЖИВОТНОВЪДЕН ОБЕКТ №89181029",
      "totalEur": 301663.31,
      "status": "Сключен",
      "contractNumber": "BG06RDNP001-4.012-0956",
      "programName": "Програма за развитие на селските райони"
    },
    {
      "ekatte": "51809",
      "lat": 42.491242,
      "lon": 26.01253,
      "title": "ВЪЗСТАНОВЯВАНЕ И РЕМОНТ НА ХРАМ \"СВЕТА ПЕТКА\" И ДЕЙСТВИЯ ПО ВЕРТИКАЛНА ПЛАНИРОВКА И ПОДОБРЯВАНЕ НА ПРИЛЕЖАЩИТЕ ПРОСТРАНСТВА в УПИ І, кв. 211, гр. НОВА ЗАГОРА, ОБЩИНА НОВА ЗАГОРА",
      "totalEur": 299096.94,
      "status": "Сключен",
      "contractNumber": "BG06RDNP001-7.015-0065",
      "programName": "Програма за развитие на селските райони"
    },
    {
      "ekatte": "44522",
      "lat": 42.352403,
      "lon": 25.963867,
      "title": "ВЪЗСТАНОВЯВАНЕ И РЕМОНТ НА ХРАМ \"СВЕТИ ВМК ГЕОРГИ\" И ДЕЙСТВИЯ ПО ВЕРТИКАЛНА ПЛАНИРОВКА И ПОДОБРЯВАНЕ НА ПРИЛЕЖАЩИТЕ ПРОСТРАНСТВА, УПИ ХIX, кв. 37, с. Любенова махала, община Нова Загора",
      "totalEur": 298060.28,
      "status": "Сключен",
      "contractNumber": "BG06RDNP001-7.015-0042",
      "programName": "Програма за развитие на селските райони"
    },
    {
      "ekatte": "52146",
      "lat": 42.29796,
      "lon": 26.091246,
      "title": "ВЪЗСТАНОВЯВАНЕ И РЕМОНТ НА ХРАМ \"СВЕТА ТРОИЦА\" И ДЕЙСТВИЯ ПО ВЕРТИКАЛНА ПЛАНИРОВКА И ПОДОБРЯВАНЕ НА ПРИЛЕЖАЩИТЕ ПРОСТРАНСТВА, УПИ ХVI, кв. 45 по плана на с. Новоселец, общ. Нова Загора",
      "totalEur": 296216.52,
      "status": "Сключен",
      "contractNumber": "BG06RDNP001-7.015-0048",
      "programName": "Програма за развитие на селските райони"
    },
    {
      "ekatte": "02734",
      "lat": 42.606235,
      "lon": 25.991019,
      "title": "Модернизиране и автоматизиране на етапи от оранжерийното производство, в съществуващато стопанство на ЕТ \"Костадин Байчев 1977\"",
      "totalEur": 293021.38,
      "status": "Сключен",
      "contractNumber": "BG-RRP-6.004-2965",
      "programName": "Национален план за възстановяване и устойчивост"
    },
    {
      "ekatte": "56527",
      "lat": 42.427225,
      "lon": 26.192053,
      "title": "Закупуване на земеделска техника и оборудване за автоматизирано пълнене на склад за зърно в с. Питово, общ. Нова Загора",
      "totalEur": 273828.39,
      "status": "Сключен",
      "contractNumber": "BG06RDNP001-4.012-0320",
      "programName": "Програма за развитие на селските райони"
    },
    {
      "ekatte": "30171",
      "lat": 42.43436,
      "lon": 25.952053,
      "title": "Подобряване конурентоспособността на ОЗК \"СЪГЛАСИЕ\", чрез инвестиции в материални активи, които са иновативни за стопанството и опазват околната среда",
      "totalEur": 256939.45,
      "status": "Сключен",
      "contractNumber": "BG06RDNP001-4.012-0840",
      "programName": "Програма за развитие на селските райони"
    },
    {
      "ekatte": "00713",
      "lat": 42.527843,
      "lon": 25.951776,
      "title": "Подкрепа и подпомагане на Трон - 11 ЕООД в процеса към реализиране на икономически преход.",
      "totalEur": 251548.45,
      "status": "В изпълнение (временно спрян)",
      "contractNumber": "BG16FFPR003-4.004-0761",
      "programName": "Програма \"Развитие на регионите\" 2021-2027"
    },
    {
      "ekatte": "07778",
      "lat": 42.300334,
      "lon": 26.164236,
      "title": "Закупуване на селскостопанска техника",
      "totalEur": 251464.7,
      "status": "Сключен",
      "contractNumber": "BG06RDNP001-4.012-0534",
      "programName": "Програма за развитие на селските райони"
    },
    {
      "ekatte": "61340",
      "lat": 42.2833,
      "lon": 26.1167,
      "title": "Закупуване на земеделска техника",
      "totalEur": 249408.17,
      "status": "Сключен",
      "contractNumber": "BG06RDNP001-4.012-0795",
      "programName": "Програма за развитие на селските райони"
    },
    {
      "ekatte": "51809",
      "lat": 42.491242,
      "lon": 26.01253,
      "title": "„Подобряване на енергийната ефективност в многофамилна жилищна сграда с адрес: гр. Нова Загора, ул. „Александър Стамболийски“ №5“",
      "totalEur": 236025.32,
      "status": "В изпълнение (от дата на стартиране)",
      "contractNumber": "BG16FFPR003-4.001-0219",
      "programName": "Програма \"Развитие на регионите\" 2021-2027"
    },
    {
      "ekatte": "51809",
      "lat": 42.491242,
      "lon": 26.01253,
      "title": "Подобряване на производствения капацитет в Пикник-17",
      "totalEur": 227013.6,
      "status": "Приключен (към датата на приключване)",
      "contractNumber": "BG16RFOP002-2.040-0998",
      "programName": "Иновации и конкурентоспособност"
    },
    {
      "ekatte": "02734",
      "lat": 42.606235,
      "lon": 25.991019,
      "title": "Модернизация на земеделско стопанство чрез инвестиции в иновации и опазване на околната среда",
      "totalEur": 218413.76,
      "status": "Сключен",
      "contractNumber": "BG-RRP-6.004-3362",
      "programName": "Национален план за възстановяване и устойчивост"
    },
    {
      "ekatte": "48725",
      "lat": 42.356199,
      "lon": 26.087951,
      "title": "Закупуване на земеделска техника за подобряване условията на труд, подобряване на хигиенните, ветеринарните, фитосанитарните, екологичните и други условия на производство",
      "totalEur": 210926.2,
      "status": "Сключен",
      "contractNumber": "BG06RDNP001-4.008-0083",
      "programName": "Програма за развитие на селските райони"
    },
    {
      "ekatte": "39757",
      "lat": 42.543038,
      "lon": 25.882818,
      "title": "Модернизация и автоматизация на земеделското стопанство",
      "totalEur": 206129.07,
      "status": "Сключен",
      "contractNumber": "BG06RDNP001-4.012-1064",
      "programName": "Програма за развитие на селските райони"
    },
    {
      "ekatte": "51809",
      "lat": 42.491242,
      "lon": 26.01253,
      "title": "ЕНЕРГИЙНО ОБНОВЯВАНЕ НА ПРОИЗВОДСТВЕНА СГРАДА НА ЗММ НОВА ЗАГОРА АД",
      "totalEur": 192949.88,
      "status": "Приключен (към датата на приключване)",
      "contractNumber": "BG-RRP-4.021-0196",
      "programName": "Национален план за възстановяване и устойчивост"
    },
    {
      "ekatte": "52146",
      "lat": 42.29796,
      "lon": 26.091246,
      "title": "Закупуване на земеделска техника за животновъдство",
      "totalEur": 189946.08,
      "status": "Сключен",
      "contractNumber": "BG06RDNP001-4.008-0475",
      "programName": "Програма за развитие на селските райони"
    },
    {
      "ekatte": "51809",
      "lat": 42.491242,
      "lon": 26.01253,
      "title": "Създаване на СТЕМ център",
      "totalEur": 185904.49,
      "status": "В изпълнение (от дата на стартиране)",
      "contractNumber": "BG-RRP-1.015-0890",
      "programName": "Национален план за възстановяване и устойчивост"
    },
    {
      "ekatte": "53518",
      "lat": 42.457825,
      "lon": 26.144322,
      "title": "Подобряване на капацитета за растеж на „АГРОТРЕЙД - ДД“ ООД, с. Омарчево, чрез развитие на конкурентноспособно земеделие",
      "totalEur": 182153.59,
      "status": "Сключен",
      "contractNumber": "BG06RDNP001-19.179-0003",
      "programName": "Програма за развитие на селските райони"
    },
    {
      "ekatte": "51809",
      "lat": 42.491242,
      "lon": 26.01253,
      "title": "„Благоустрояване на Парк „Мария Роза“ гр. Нова Загора“",
      "totalEur": 169582.58,
      "status": "Сключен",
      "contractNumber": "BG06RDNP001-19.492-0001",
      "programName": "Програма за развитие на селските райони"
    },
    {
      "ekatte": "27245",
      "lat": 42.38539,
      "lon": 26.144813,
      "title": "„Закупуване на земеделска техника за стопанството на „ЗП ГЕОРГИ ГЕОРГИЕВ“ ЕООД в с. Еленово, общ. Нова Загора, обл. Сливен.“",
      "totalEur": 166811.83,
      "status": "Сключен",
      "contractNumber": "BG06RDNP001-4.012-0667",
      "programName": "Програма за развитие на селските райони"
    },
    {
      "ekatte": "51809",
      "lat": 42.491242,
      "lon": 26.01253,
      "title": "Подобряване енергийната ефективност на Районно управление \"Полиция\" - Нова Загора",
      "totalEur": 158125.61,
      "status": "Приключен (към датата на приключване)",
      "contractNumber": "BG16RFOP001-2.001-0042",
      "programName": "Региони в растеж"
    },
    {
      "ekatte": "51809",
      "lat": 42.491242,
      "lon": 26.01253,
      "title": "Подобряване на енергийната ефективност на СОУ \"Иван Вазов\" - начален етап, гр. Нова Загора",
      "totalEur": 156753.41,
      "status": "Приключен (към датата на приключване)",
      "contractNumber": "BG16RFOP001-2.001-0044",
      "programName": "Региони в растеж"
    },
    {
      "ekatte": "44505",
      "lat": 42.368137,
      "lon": 25.951166,
      "title": "Закупуване на оборудване за кравеферма",
      "totalEur": 148018.74,
      "status": "Сключен",
      "contractNumber": "BG06RDNP001-4.012-0594",
      "programName": "Програма за развитие на селските райони"
    },
    {
      "ekatte": "04635",
      "lat": 42.395269,
      "lon": 25.993938,
      "title": "Закупуване на миксер вагон за хранене на животните в кравеферма в с. Богданово, общ. Нова Загора",
      "totalEur": 143487.41,
      "status": "Сключен",
      "contractNumber": "BG06RDNP001-19.179-0011",
      "programName": "Програма за развитие на селските райони"
    },
    {
      "ekatte": "51809",
      "lat": 42.491242,
      "lon": 26.01253,
      "title": "Нов модел на интегрирана здравна грижа за деца в Югоизточния регион",
      "totalEur": 140154.77,
      "status": "В изпълнение (от дата на стартиране)",
      "contractNumber": "BG16FFPR003-2.006-0047",
      "programName": "Програма \"Развитие на регионите\" 2021-2027"
    },
    {
      "ekatte": "51809",
      "lat": 42.491242,
      "lon": 26.01253,
      "title": "Възстановяване на МСП чрез подобряване на енергийната ефективност",
      "totalEur": 139388.4,
      "status": "Приключен (към датата на приключване)",
      "contractNumber": "BG16RFOP002-6.002-0825",
      "programName": "Иновации и конкурентоспособност"
    },
    {
      "ekatte": "58726",
      "lat": 42.352818,
      "lon": 26.206083,
      "title": "Закупуване на селскостопанска техника",
      "totalEur": 131424.74,
      "status": "Сключен",
      "contractNumber": "BG06RDNP001-4.012-1535",
      "programName": "Програма за развитие на селските райони"
    },
    {
      "ekatte": "51809",
      "lat": 42.491242,
      "lon": 26.01253,
      "title": "Изграждане на училищна STEM среда",
      "totalEur": 128725.07,
      "status": "Приключен (към датата на приключване)",
      "contractNumber": "BG-RRP-1.015-2060",
      "programName": "Национален план за възстановяване и устойчивост"
    },
    {
      "ekatte": "51809",
      "lat": 42.491242,
      "lon": 26.01253,
      "title": "Адаптиране на работната среда в \"Агроконсулт Метал\" ООД",
      "totalEur": 127988.64,
      "status": "В изпълнение (от дата на стартиране)",
      "contractNumber": "BG05SFPR002-1.004-0561",
      "programName": "Програма \"Развитие на човешките ресурси\" 2021-2027"
    },
    {
      "ekatte": "51809",
      "lat": 42.491242,
      "lon": 26.01253,
      "title": "Изграждане на STEM център и ВОСКС в ПГТТ \"Атанас Димитров\", гр. Нова Загора",
      "totalEur": 124737.06,
      "status": "В изпълнение (от дата на стартиране)",
      "contractNumber": "BG-RRP-1.015-1484",
      "programName": "Национален план за възстановяване и устойчивост"
    },
    {
      "ekatte": "51809",
      "lat": 42.491242,
      "lon": 26.01253,
      "title": "Създаване на СТЕМ център",
      "totalEur": 118768.35,
      "status": "В изпълнение (от дата на стартиране)",
      "contractNumber": "BG-RRP-1.015-0077",
      "programName": "Национален план за възстановяване и устойчивост"
    },
    {
      "ekatte": "70487",
      "lat": 42.530154,
      "lon": 26.077172,
      "title": "Инвестиции в технологична и екологична модернизация",
      "totalEur": 116708.12,
      "status": "Сключен",
      "contractNumber": "BG-RRP-6.004-1429",
      "programName": "Национален план за възстановяване и устойчивост"
    },
    {
      "ekatte": "57371",
      "lat": 42.461461,
      "lon": 26.086235,
      "title": "Инвестиции в технологична модернизация на овощарското стопанство на ЗС Любомира Николаева Атанасова",
      "totalEur": 107984.84,
      "status": "Сключен",
      "contractNumber": "BG-RRP-6.004-2216",
      "programName": "Национален план за възстановяване и устойчивост"
    },
    {
      "ekatte": "02734",
      "lat": 42.606235,
      "lon": 25.991019,
      "title": "\"Инсталиране на фотоволтаична система (ФЕЦ) и закупуване на електрическо превозно средство, включително свързана зарядна станция за нуждите на Дом за стари хора „Света Петка“, с. Баня, общ. Нова Загора\".",
      "totalEur": 107887.7,
      "status": "В изпълнение (от дата на стартиране)",
      "contractNumber": "BG-RRP-13.009-0155",
      "programName": "Национален план за възстановяване и устойчивост"
    },
    {
      "ekatte": "70487",
      "lat": 42.530154,
      "lon": 26.077172,
      "title": "Технологична модернизация и дигитализация",
      "totalEur": 107192.34,
      "status": "Сключен",
      "contractNumber": "BG-RRP-6.004-2269",
      "programName": "Национален план за възстановяване и устойчивост"
    },
    {
      "ekatte": "51809",
      "lat": 42.491242,
      "lon": 26.01253,
      "title": "„Мобилна система за дъждуване с тръбноролкова машина с прилагане на съвременни методи за мониторинг при напояване на царевица в землището на гр. Нова Загора, общ. Нова Загора с площ от 42,40 хa“",
      "totalEur": 104725.86,
      "status": "Сключен",
      "contractNumber": "BG06RDNP001-4.017-0119",
      "programName": "Програма за развитие на селските райони"
    },
    {
      "ekatte": "30171",
      "lat": 42.43436,
      "lon": 25.952053,
      "title": "„Закупуване на селскостопанска техника“",
      "totalEur": 102398.58,
      "status": "Сключен",
      "contractNumber": "BG06RDNP001-19.179-0010",
      "programName": "Програма за развитие на селските райони"
    },
    {
      "ekatte": "51809",
      "lat": 42.491242,
      "lon": 26.01253,
      "title": "Подобряване на производствения капацитет на СТРОЙКОМ ЕООД",
      "totalEur": 102258.38,
      "status": "В изпълнение (от дата на стартиране)",
      "contractNumber": "BG16RFPR001-1.004-0518",
      "programName": "Програма \"Конкурентоспособност и иновации в предприятията\" 2021-2027"
    },
    {
      "ekatte": "51809",
      "lat": 42.491242,
      "lon": 26.01253,
      "title": "Подобряване производствения капацитет и повишаване конкурентоспособността на „ГЕОПРОЕКТ ИНЖЕНЕРИНГ“ ООД",
      "totalEur": 102207.25,
      "status": "Приключен (към датата на приключване)",
      "contractNumber": "BG16RFPR001-1.004-0869",
      "programName": "Програма \"Конкурентоспособност и иновации в предприятията\" 2021-2027"
    },
    {
      "ekatte": "30171",
      "lat": 42.43436,
      "lon": 25.952053,
      "title": "Закупуване на тороразхвърлящо ремарке и напоителна система",
      "totalEur": 101775.2,
      "status": "Сключен",
      "contractNumber": "BG06RDNP001-19.583-0003",
      "programName": "Програма за развитие на селските райони"
    },
    {
      "ekatte": "51809",
      "lat": 42.491242,
      "lon": 26.01253,
      "title": "Инвестиции в земеделското стопанство на ЕТ Диян Танев - Агроплод",
      "totalEur": 99785.06,
      "status": "Сключен",
      "contractNumber": "BG06RDNP001-19.827-0002",
      "programName": "Програма за развитие на селските райони"
    },
    {
      "ekatte": "36395",
      "lat": 42.512722,
      "lon": 25.908479,
      "title": "Закупуване на земеделска техника",
      "totalEur": 99703,
      "status": "Сключен",
      "contractNumber": "BG06RDNP001-19.583-0002",
      "programName": "Програма за развитие на селските райони"
    },
    {
      "ekatte": "51809",
      "lat": 42.491242,
      "lon": 26.01253,
      "title": "Създаване на СТЕМ център",
      "totalEur": 99258.68,
      "status": "В изпълнение (от дата на стартиране)",
      "contractNumber": "BG-RRP-1.015-0093",
      "programName": "Национален план за възстановяване и устойчивост"
    },
    {
      "ekatte": "51809",
      "lat": 42.491242,
      "lon": 26.01253,
      "title": "Енергийна ефективност и използване на енергия от възобновяеми източници в Спринт 2007 ЕООД.",
      "totalEur": 98845.24,
      "status": "В изпълнение (от дата на стартиране)",
      "contractNumber": "BG16RFPR001-2.004-0406",
      "programName": "Програма \"Конкурентоспособност и иновации в предприятията\" 2021-2027"
    },
    {
      "ekatte": "51809",
      "lat": 42.491242,
      "lon": 26.01253,
      "title": "Автоматизация на производствения процес в \"Сита паст\" ЕООД, чрез въвеждане на високотехнологични машини за изработка на пластмасови детайли под налягане",
      "totalEur": 93924.32,
      "status": "В изпълнение (от дата на стартиране)",
      "contractNumber": "BG16RFPR001-1.004-2601",
      "programName": "Програма \"Конкурентоспособност и иновации в предприятията\" 2021-2027"
    },
    {
      "ekatte": "38683",
      "lat": 42.544486,
      "lon": 25.996303,
      "title": "Модернизация на производствения процес в предприятието",
      "totalEur": 93813.72,
      "status": "Сключен",
      "contractNumber": "BG06RDNP001-19.441-0001",
      "programName": "Програма за развитие на селските райони"
    },
    {
      "ekatte": "69314",
      "lat": 42.462407,
      "lon": 25.985628,
      "title": "Създаване на СТЕМ център",
      "totalEur": 92952.25,
      "status": "В изпълнение (от дата на стартиране)",
      "contractNumber": "BG-RRP-1.015-0072",
      "programName": "Национален план за възстановяване и устойчивост"
    },
    {
      "ekatte": "51809",
      "lat": 42.491242,
      "lon": 26.01253,
      "title": "Създаване на СТЕМ център",
      "totalEur": 92952.25,
      "status": "В изпълнение (от дата на стартиране)",
      "contractNumber": "BG-RRP-1.015-0076",
      "programName": "Национален план за възстановяване и устойчивост"
    },
    {
      "ekatte": "02734",
      "lat": 42.606235,
      "lon": 25.991019,
      "title": "Създаване на СТЕМ център",
      "totalEur": 92952.25,
      "status": "В изпълнение (от дата на стартиране)",
      "contractNumber": "BG-RRP-1.015-0080",
      "programName": "Национален план за възстановяване и устойчивост"
    },
    {
      "ekatte": "51809",
      "lat": 42.491242,
      "lon": 26.01253,
      "title": "изграждане на стем среда",
      "totalEur": 92952.25,
      "status": "В изпълнение (от дата на стартиране)",
      "contractNumber": "BG-RRP-1.015-0612",
      "programName": "Национален план за възстановяване и устойчивост"
    },
    {
      "ekatte": "38683",
      "lat": 42.544486,
      "lon": 25.996303,
      "title": "Изграждане на СТЕМ център",
      "totalEur": 92952.24,
      "status": "В изпълнение (от дата на стартиране)",
      "contractNumber": "BG-RRP-1.015-0795",
      "programName": "Национален план за възстановяване и устойчивост"
    },
    {
      "ekatte": "38426",
      "lat": 42.522331,
      "lon": 26.168187,
      "title": "Създаване на СТЕМ център",
      "totalEur": 92939.79,
      "status": "В изпълнение (от дата на стартиране)",
      "contractNumber": "BG-RRP-1.015-0086",
      "programName": "Национален план за възстановяване и устойчивост"
    },
    {
      "ekatte": "58726",
      "lat": 42.352818,
      "lon": 26.206083,
      "title": "„Закупуване на селскостопанска техника за отглеждане на крави“",
      "totalEur": 87973.83,
      "status": "Сключен",
      "contractNumber": "BG06RDNP001-4.008-0476",
      "programName": "Програма за развитие на селските райони"
    },
    {
      "ekatte": "70487",
      "lat": 42.530154,
      "lon": 26.077172,
      "title": "Закупуване на нови машини, необходими за подобряване на земеделския производствен процес, включително за опазване компонентите на околната среда, необходими за земеделските дейности на стопанството и подобряване на енергийната ефективност",
      "totalEur": 85850,
      "status": "Сключен",
      "contractNumber": "BG06RDNP001-19.179-0012",
      "programName": "Програма за развитие на селските райони"
    },
    {
      "ekatte": "44505",
      "lat": 42.368137,
      "lon": 25.951166,
      "title": "„Закупуване на машини, доставка и монтаж на оборудване за кравеферма и фотоволтаична инсталация с мощност 16,50 kWp“",
      "totalEur": 81646.14,
      "status": "Сключен",
      "contractNumber": "BG-RRP-6.004-3228",
      "programName": "Национален план за възстановяване и устойчивост"
    },
    {
      "ekatte": "51809",
      "lat": 42.491242,
      "lon": 26.01253,
      "title": "ЗАКУПУВАНЕ НА ЗЕМЕДЕЛСКА ТЕХНИКА",
      "totalEur": 78227.66,
      "status": "Сключен",
      "contractNumber": "BG06RDNP001-19.179-0007",
      "programName": "Програма за развитие на селските райони"
    },
    {
      "ekatte": "69314",
      "lat": 42.462407,
      "lon": 25.985628,
      "title": "ЗАКУПУВАНЕ НА ЗЕМЕДЕЛСКА ТЕХНИКА",
      "totalEur": 78000,
      "status": "Сключен",
      "contractNumber": "BG06RDNP001-19.179-0006",
      "programName": "Програма за развитие на селските райони"
    },
    {
      "ekatte": "51809",
      "lat": 42.491242,
      "lon": 26.01253,
      "title": "Подкрепа за средни предприятия за преодоляване на икономическите последствия от пандемията COVID-19",
      "totalEur": 76693.78,
      "status": "Приключен (към датата на приключване)",
      "contractNumber": "BG16RFOP002-2.077-0141",
      "programName": "Иновации и конкурентоспособност"
    },
    {
      "ekatte": "51809",
      "lat": 42.491242,
      "lon": 26.01253,
      "title": "Подкрепа за средни предприятия за преодоляване на икономическите последствия от пандемията COVID-19",
      "totalEur": 76693.78,
      "status": "Приключен (към датата на приключване)",
      "contractNumber": "BG16RFOP002-2.077-0335",
      "programName": "Иновации и конкурентоспособност"
    },
    {
      "ekatte": "51809",
      "lat": 42.491242,
      "lon": 26.01253,
      "title": "Подкрепа за средни предприятия за преодоляване на икономическите последствия от пандемията COVID-19",
      "totalEur": 76693.78,
      "status": "Приключен (към датата на приключване)",
      "contractNumber": "BG16RFOP002-2.077-1830",
      "programName": "Иновации и конкурентоспособност"
    },
    {
      "ekatte": "38683",
      "lat": 42.544486,
      "lon": 25.996303,
      "title": "МОДЕРНИЗАЦИЯ И ИНВЕСТИЦИИ В НАПОЯВАНЕ НА ЗЕМЕДЕЛСКО СТОПАНСТВО",
      "totalEur": 75789.84,
      "status": "Сключен",
      "contractNumber": "BG06RDNP001-4.012-0445",
      "programName": "Програма за развитие на селските райони"
    },
    {
      "ekatte": "69314",
      "lat": 42.462407,
      "lon": 25.985628,
      "title": "Закупуване на земеделска техника",
      "totalEur": 74137.32,
      "status": "Сключен",
      "contractNumber": "BG06RDNP001-19.827-0001",
      "programName": "Програма за развитие на селските райони"
    },
    {
      "ekatte": "57371",
      "lat": 42.461461,
      "lon": 26.086235,
      "title": "ЗАКУПУВАНЕ НА ЗЕМЕДЕЛСКА ТЕХНИКА",
      "totalEur": 71580.86,
      "status": "Сключен",
      "contractNumber": "BG06RDNP001-19.179-0008",
      "programName": "Програма за развитие на селските райони"
    },
    {
      "ekatte": "51809",
      "lat": 42.491242,
      "lon": 26.01253,
      "title": "Подобряване енергийната ефективност на Районна служба \"Пожарна безопасност и защита на населението\" - Нова Загора",
      "totalEur": 67448.88,
      "status": "Приключен (към датата на приключване)",
      "contractNumber": "BG16RFOP001-2.001-0030",
      "programName": "Региони в растеж"
    },
    {
      "ekatte": "51809",
      "lat": 42.491242,
      "lon": 26.01253,
      "title": "Инвестиции в оборудване за фирма \"Валей Козметикс\" ЕООД",
      "totalEur": 66546.29,
      "status": "Сключен",
      "contractNumber": "BG06RDNP001-19.379-0003",
      "programName": "Програма за развитие на селските райони"
    },
    {
      "ekatte": "38426",
      "lat": 42.522331,
      "lon": 26.168187,
      "title": "Инвестиция в стопанството на фирма Розленд ООД",
      "totalEur": 50215.96,
      "status": "Сключен",
      "contractNumber": "BG06RDNP001-19.179-0001",
      "programName": "Програма за развитие на селските райони"
    },
    {
      "ekatte": "51809",
      "lat": 42.491242,
      "lon": 26.01253,
      "title": "„Подобряване на работната среда в ЗMМ Нова Загора АД“",
      "totalEur": 47807.42,
      "status": "Приключен (към датата на приключване)",
      "contractNumber": "BG05M9OP001-1.008-0479",
      "programName": "Развитие на човешките ресурси"
    },
    {
      "ekatte": "51809",
      "lat": 42.491242,
      "lon": 26.01253,
      "title": "„Закупуване на оборудване необходимо за дейността на индивидуална практика за специализирана медицинска помощ по ушно – носно - гърлени болести“",
      "totalEur": 40117.76,
      "status": "Сключен",
      "contractNumber": "BG06RDNP001-19.379-0002",
      "programName": "Програма за развитие на селските райони"
    },
    {
      "ekatte": "27111",
      "lat": 42.464441,
      "lon": 26.020048,
      "title": "Подкрепа за МСП, извършващи автобусни превози, за преодоляване на икономическите последствия от пандемията COVID-19",
      "totalEur": 39880.77,
      "status": "Приключен (към датата на приключване)",
      "contractNumber": "BG16RFOP002-2.091-0292",
      "programName": "Иновации и конкурентоспособност"
    },
    {
      "ekatte": "61310",
      "lat": 42.415327,
      "lon": 26.05855,
      "title": "Закупуване на пчеларско оборудване и инвентар",
      "totalEur": 39566.74,
      "status": "Сключен",
      "contractNumber": "BG06RDNP001-4.008-0553",
      "programName": "Програма за развитие на селските райони"
    },
    {
      "ekatte": "51809",
      "lat": 42.491242,
      "lon": 26.01253,
      "title": "Подкрепа за МСП, извършващи автобусни превози, за преодоляване на икономическите последствия от пандемията COVID-19",
      "totalEur": 37786.51,
      "status": "Приключен (към датата на приключване)",
      "contractNumber": "BG16RFOP002-2.091-0062",
      "programName": "Иновации и конкурентоспособност"
    },
    {
      "ekatte": "69314",
      "lat": 42.462407,
      "lon": 25.985628,
      "title": "Закупуване на машини за почистване, калиблиране и обеззаразяване на семена.",
      "totalEur": 35151.32,
      "status": "Сключен",
      "contractNumber": "BG06RDNP001-19.379-0001",
      "programName": "Програма за развитие на селските райони"
    },
    {
      "ekatte": "51809",
      "lat": 42.491242,
      "lon": 26.01253,
      "title": "Подкрепа за МСП, извършващи автобусни превози, за преодоляване на икономическите последствия от пандемията COVID-19",
      "totalEur": 34767.89,
      "status": "Приключен (към датата на приключване)",
      "contractNumber": "BG16RFOP002-2.091-0501",
      "programName": "Иновации и конкурентоспособност"
    },
    {
      "ekatte": "00713",
      "lat": 42.527843,
      "lon": 25.951776,
      "title": "Осигуряване на компенсации за рибовъдното стопанство на СТРОЙКОМ ЕООД във връзка със сътресението на пазара, причинено от войната на Русия срещу Украйна",
      "totalEur": 33525.52,
      "status": "В изпълнение (от дата на стартиране)",
      "contractNumber": "BG14MFOP001-5.024-0034",
      "programName": "Програма за морско дело и рибарство"
    },
    {
      "ekatte": "51809",
      "lat": 42.491242,
      "lon": 26.01253,
      "title": "Оборудване за кабинет по УНГ",
      "totalEur": 33088.17,
      "status": "Сключен",
      "contractNumber": "BG06RDNP001-6.003-0367",
      "programName": "Програма за развитие на селските райони"
    },
    {
      "ekatte": "36395",
      "lat": 42.512722,
      "lon": 25.908479,
      "title": "изграждане на СТЕМ среда",
      "totalEur": 30963.22,
      "status": "В изпълнение (от дата на стартиране)",
      "contractNumber": "BG-RRP-1.015-2317",
      "programName": "Национален план за възстановяване и устойчивост"
    },
    {
      "ekatte": "44522",
      "lat": 42.352403,
      "lon": 25.963867,
      "title": "Национален план за възстановяване и устойчивост",
      "totalEur": 30757.17,
      "status": "Приключен (към датата на приключване)",
      "contractNumber": "BG-RRP-1.015-0439",
      "programName": "Национален план за възстановяване и устойчивост"
    },
    {
      "ekatte": "51809",
      "lat": 42.491242,
      "lon": 26.01253,
      "title": "Подкрепа за средни предприятия за преодоляване на икономическите последствия от пандемията COVID-19",
      "totalEur": 28887.99,
      "status": "Приключен (към датата на приключване)",
      "contractNumber": "BG16RFOP002-2.077-1418",
      "programName": "Иновации и конкурентоспособност"
    },
    {
      "ekatte": "51809",
      "lat": 42.491242,
      "lon": 26.01253,
      "title": "Подкрепа за малки предприятия с оборот над 500 000 лв. за преодоляване на икономическите последствия от пандемията COVID-19",
      "totalEur": 25564.59,
      "status": "Приключен (към датата на приключване)",
      "contractNumber": "BG16RFOP002-2.089-0665",
      "programName": "Иновации и конкурентоспособност"
    },
    {
      "ekatte": "51809",
      "lat": 42.491242,
      "lon": 26.01253,
      "title": "Подкрепа за малки предприятия с оборот над 500 000 лв. за преодоляване на икономическите последствия от пандемията COVID-19",
      "totalEur": 25564.59,
      "status": "Приключен (към датата на приключване)",
      "contractNumber": "BG16RFOP002-2.089-0725",
      "programName": "Иновации и конкурентоспособност"
    },
    {
      "ekatte": "24760",
      "lat": 42.435263,
      "lon": 26.017907,
      "title": "Подкрепа за малки предприятия с оборот над 500 000 лв. за преодоляване на икономическите последствия от пандемията COVID-19",
      "totalEur": 25564.59,
      "status": "Приключен (към датата на приключване)",
      "contractNumber": "BG16RFOP002-2.089-1721",
      "programName": "Иновации и конкурентоспособност"
    },
    {
      "ekatte": "51809",
      "lat": 42.491242,
      "lon": 26.01253,
      "title": "Подкрепа за малки предприятия с оборот над 500 000 лв. за преодоляване на икономическите последствия от пандемията COVID-19",
      "totalEur": 25564.59,
      "status": "Приключен (към датата на приключване)",
      "contractNumber": "BG16RFOP002-2.089-2319",
      "programName": "Иновации и конкурентоспособност"
    },
    {
      "ekatte": "27111",
      "lat": 42.464441,
      "lon": 26.020048,
      "title": "Подкрепа за малки предприятия с оборот над 500 000 лв. за преодоляване на икономическите последствия от пандемията COVID-19",
      "totalEur": 25564.59,
      "status": "Приключен (към датата на приключване)",
      "contractNumber": "BG16RFOP002-2.089-2428",
      "programName": "Иновации и конкурентоспособност"
    },
    {
      "ekatte": "51809",
      "lat": 42.491242,
      "lon": 26.01253,
      "title": "Подкрепа за малки предприятия с оборот над 500 000 лв. за преодоляване на икономическите последствия от пандемията COVID-19",
      "totalEur": 25564.59,
      "status": "Приключен (към датата на приключване)",
      "contractNumber": "BG16RFOP002-2.089-2771",
      "programName": "Иновации и конкурентоспособност"
    },
    {
      "ekatte": "51809",
      "lat": 42.491242,
      "lon": 26.01253,
      "title": "Подкрепа за малки предприятия с оборот над 500 000 лв. за преодоляване на икономическите последствия от пандемията COVID-19",
      "totalEur": 25564.59,
      "status": "Приключен (към датата на приключване)",
      "contractNumber": "BG16RFOP002-2.089-4233",
      "programName": "Иновации и конкурентоспособност"
    },
    {
      "ekatte": "51809",
      "lat": 42.491242,
      "lon": 26.01253,
      "title": "Подкрепа за малки предприятия с оборот над 500 000 лв. за преодоляване на икономическите последствия от пандемията COVID-19",
      "totalEur": 25564.59,
      "status": "Приключен (към датата на приключване)",
      "contractNumber": "BG16RFOP002-2.089-5243",
      "programName": "Иновации и конкурентоспособност"
    },
    {
      "ekatte": "51809",
      "lat": 42.491242,
      "lon": 26.01253,
      "title": "Подкрепа за малки предприятия с оборот над 500 000 лв. за преодоляване на икономическите последствия от пандемията COVID-19",
      "totalEur": 25564.59,
      "status": "Приключен (към датата на приключване)",
      "contractNumber": "BG16RFOP002-2.089-5266",
      "programName": "Иновации и конкурентоспособност"
    },
    {
      "ekatte": "51161",
      "lat": 42.564017,
      "lon": 26.089269,
      "title": "Стартова помощ за създаване и развитие на стопанство на младия фермер Илиян Илчев за отглеждане на трайни насаждения череши по метода на биологичното производство - в преход и наемане на черешова градина, която ще се отглежда по метода на биологичното земеделие в преход.",
      "totalEur": 24999.63,
      "status": "Сключен",
      "contractNumber": "BG06RDNP001-6.001-0494",
      "programName": "Програма за развитие на селските райони"
    },
    {
      "ekatte": "51161",
      "lat": 42.564017,
      "lon": 26.089269,
      "title": "Инвестиции в развитие на модерно и икономически жизнеспособно земеделско стопанство",
      "totalEur": 24999.62,
      "status": "Сключен",
      "contractNumber": "BG06RDNP001-6.001-0553",
      "programName": "Програма за развитие на селските райони"
    },
    {
      "ekatte": "57371",
      "lat": 42.461461,
      "lon": 26.086235,
      "title": "Създаване на жизнеспособно и устойчиво земеделско стопанство на Любомира Атанасова",
      "totalEur": 24999.62,
      "status": "Сключен",
      "contractNumber": "BG06RDNP001-6.001-1651",
      "programName": "Програма за развитие на селските райони"
    },
    {
      "ekatte": "53518",
      "lat": 42.457825,
      "lon": 26.144322,
      "title": "Модернизиране на земеделското стопанство на ЗС Станимир Иванов Динев",
      "totalEur": 24999.62,
      "status": "Сключен",
      "contractNumber": "BG06RDNP001-6.013-0498",
      "programName": "Програма за развитие на селските райони"
    },
    {
      "ekatte": "48725",
      "lat": 42.356199,
      "lon": 26.087951,
      "title": "Модернизиране и разширяване на земеделско стопанство за отглеждане на трайни насаждения (сливи) в землището на село Млекарево с ЕКАТТЕ 48725, община Нова Загора, област Сливен",
      "totalEur": 24999.61,
      "status": "Сключен",
      "contractNumber": "BG06RDNP001-6.001-0327",
      "programName": "Програма за развитие на селските райони"
    },
    {
      "ekatte": "04635",
      "lat": 42.395269,
      "lon": 25.993938,
      "title": "Стартова помощ за създаване и развитие на стопанство на младия фермер Иван Иванов специализирано в отглеждане на череши по метода на биологичното производство в преход и увеличаване на трайните насаждения чрез наемане на черешова градина която ще се отглежда по биологичен начин.",
      "totalEur": 24999.61,
      "status": "Сключен",
      "contractNumber": "BG06RDNP001-6.001-1201",
      "programName": "Програма за развитие на селските райони"
    },
    {
      "ekatte": "61310",
      "lat": 42.415327,
      "lon": 26.05855,
      "title": "Отглеждане на пчелни семейства",
      "totalEur": 24999.61,
      "status": "Сключен",
      "contractNumber": "BG06RDNP001-6.001-1646",
      "programName": "Програма за развитие на селските райони"
    },
    {
      "ekatte": "70490",
      "lat": 42.560069,
      "lon": 26.049676,
      "title": "Стартова помощ за създаване и развитие на стопанство на младия земеделски стопанин Антон Петров отглеждащ оранжерийни зеленчуци",
      "totalEur": 24999.61,
      "status": "Сключен",
      "contractNumber": "BG06RDNP001-6.013-0010",
      "programName": "Програма за развитие на селските райони"
    },
    {
      "ekatte": "04635",
      "lat": 42.395269,
      "lon": 25.993938,
      "title": "Стартова помощ за създаване и развитие на стопанство на младия земеделски стопанин Мария Георгиева, отглеждаща малини",
      "totalEur": 24999.61,
      "status": "Сключен",
      "contractNumber": "BG06RDNP001-6.013-0199",
      "programName": "Програма за развитие на селските райони"
    },
    {
      "ekatte": "67831",
      "lat": 42.405377,
      "lon": 26.094802,
      "title": "Стартова помощ за млад земеделски стопанин",
      "totalEur": 24999.61,
      "status": "Сключен",
      "contractNumber": "BG06RDNP001-6.013-0322",
      "programName": "Програма за развитие на селските райони"
    },
    {
      "ekatte": "51809",
      "lat": 42.491242,
      "lon": 26.01253,
      "title": "Обучения за заети лица във фирма \"ДИПОЛ\" ЕООД",
      "totalEur": 23902.9,
      "status": "Приключен (към датата на приключване)",
      "contractNumber": "BG05M9OP001-1.021-0313",
      "programName": "Развитие на човешките ресурси"
    },
    {
      "ekatte": "51809",
      "lat": 42.491242,
      "lon": 26.01253,
      "title": "Подкрепа за МСП, извършващи автобусни превози, за преодоляване на икономическите последствия от пандемията COVID-19",
      "totalEur": 17756.65,
      "status": "Приключен (към датата на приключване)",
      "contractNumber": "BG16RFOP002-2.091-0086",
      "programName": "Иновации и конкурентоспособност"
    },
    {
      "ekatte": "38683",
      "lat": 42.544486,
      "lon": 25.996303,
      "title": "Изграждане на дигитален клуб за Народно читалище „Светлина 2000\" в село Кортен.",
      "totalEur": 17383.93,
      "status": "В изпълнение (от дата на стартиране)",
      "contractNumber": "BG-RRP-1.024-0951",
      "programName": "Национален план за възстановяване и устойчивост"
    },
    {
      "ekatte": "38683",
      "lat": 42.544486,
      "lon": 25.996303,
      "title": "Изграждане на дигитален клуб в с. Кортен",
      "totalEur": 17383.92,
      "status": "В изпълнение (от дата на стартиране)",
      "contractNumber": "BG-RRP-1.024-1293",
      "programName": "Национален план за възстановяване и устойчивост"
    },
    {
      "ekatte": "51809",
      "lat": 42.491242,
      "lon": 26.01253,
      "title": "Подкрепа за МСП, извършващи автобусни превози, за преодоляване на икономическите последствия от пандемията COVID-19",
      "totalEur": 15379.62,
      "status": "Приключен (към датата на приключване)",
      "contractNumber": "BG16RFOP002-2.091-0541",
      "programName": "Иновации и конкурентоспособност"
    },
    {
      "ekatte": "04635",
      "lat": 42.395269,
      "lon": 25.993938,
      "title": "Стартова помощ за икономическо развитие и укрепване на земеделското стопанство на Станимир Кирчев с основна дейност отглеждане на плодове - сливи и малини и увеличаване площите със сливови насаждения чрез наемане на сливова градина",
      "totalEur": 14999.78,
      "status": "Сключен",
      "contractNumber": "BG06RDNP001-6.007-0248",
      "programName": "Програма за развитие на селските райони"
    },
    {
      "ekatte": "61310",
      "lat": 42.415327,
      "lon": 26.05855,
      "title": "Стартова помощ за икономическо развитие и укрепване на земеделското стопанство на Мария Папазова за отглеждане на пчелни семейства и трайни насаждения – череши, кайсии и сливи",
      "totalEur": 14999.78,
      "status": "Сключен",
      "contractNumber": "BG06RDNP001-6.007-0842",
      "programName": "Програма за развитие на селските райони"
    },
    {
      "ekatte": "02734",
      "lat": 42.606235,
      "lon": 25.991019,
      "title": "Стартова помощ за икономическо развитие и укрепване на земеделското стопанство на Йоана Мутазова за отглеждане на пчелни семейства",
      "totalEur": 14999.78,
      "status": "Сключен",
      "contractNumber": "BG06RDNP001-6.007-0844",
      "programName": "Програма за развитие на селските райони"
    },
    {
      "ekatte": "38426",
      "lat": 42.522331,
      "lon": 26.168187,
      "title": "Развитие на стопанство с отглеждане на пчелни семейства в землището на с.Коньово, общ. Нова Загора, обл. Сливен",
      "totalEur": 14999.78,
      "status": "Сключен",
      "contractNumber": "BG06RDNP001-6.007-2335",
      "programName": "Програма за развитие на селските райони"
    },
    {
      "ekatte": "27245",
      "lat": 42.38539,
      "lon": 26.144813,
      "title": "Отглеждане на кози и инвестиции в биосигурност",
      "totalEur": 14999.78,
      "status": "Сключен",
      "contractNumber": "BG06RDNP001-6.008-0062",
      "programName": "Програма за развитие на селските райони"
    },
    {
      "ekatte": "48725",
      "lat": 42.356199,
      "lon": 26.087951,
      "title": "Стартова помощ за икономическо развитие и укрепване на земеделското стопанство на Силвана Колева с основна дейност отглеждане на пчелни семейства по конвенционален начин и увеличаване на техния брой чрез собствена развъдна дейност.",
      "totalEur": 14999.77,
      "status": "Сключен",
      "contractNumber": "BG06RDNP001-6.007-0623",
      "programName": "Програма за развитие на селските райони"
    },
    {
      "ekatte": "61310",
      "lat": 42.415327,
      "lon": 26.05855,
      "title": "Стартова помощ за икономическо развитие и укрепване на земеделското стопанство на Даниела Тодорова с основна дейност отглеждане на пчелни семейства и увеличаване на техния брой чрез собствена развъдна дейност.",
      "totalEur": 14999.77,
      "status": "Сключен",
      "contractNumber": "BG06RDNP001-6.007-0868",
      "programName": "Програма за развитие на селските райони"
    },
    {
      "ekatte": "00713",
      "lat": 42.527843,
      "lon": 25.951776,
      "title": "Стартова помощ за икономическо развитие и укрепване на земеделското стопанство на Петър Тачев за отглеждане на пчелни семейства и увеличаването им чрез собствена развъдна дейност",
      "totalEur": 14999.77,
      "status": "Сключен",
      "contractNumber": "BG06RDNP001-6.007-0876",
      "programName": "Програма за развитие на селските райони"
    },
    {
      "ekatte": "27245",
      "lat": 42.38539,
      "lon": 26.144813,
      "title": "Стартова помощ за икономическо развитие и укрепване на земеделското стопанство на Мария Димитрова за отглеждане на пчелни семейства.",
      "totalEur": 14999.77,
      "status": "Сключен",
      "contractNumber": "BG06RDNP001-6.007-1020",
      "programName": "Програма за развитие на селските райони"
    },
    {
      "ekatte": "48725",
      "lat": 42.356199,
      "lon": 26.087951,
      "title": "Повишаване икономическото развитие и модернизиране на земеделското стопанство на ЗС Пенчо Танев Ириков",
      "totalEur": 14999.77,
      "status": "Сключен",
      "contractNumber": "BG06RDNP001-6.007-1485",
      "programName": "Програма за развитие на селските райони"
    },
    {
      "ekatte": "39757",
      "lat": 42.543038,
      "lon": 25.882818,
      "title": "Стартова помощ за развитието на малко стопанство на земеделски стопанин Ирина Колева Дочева за отглеждане на круши и създаване на нова крушева градина.",
      "totalEur": 14999.77,
      "status": "Сключен",
      "contractNumber": "BG06RDNP001-6.012-0340",
      "programName": "Програма за развитие на селските райони"
    },
    {
      "ekatte": "04635",
      "lat": 42.395269,
      "lon": 25.993938,
      "title": "Подпомагане развитието на стопанството на земеделски стопанин Никола Стоянов Кирчев",
      "totalEur": 14999.77,
      "status": "Сключен",
      "contractNumber": "BG06RDNP001-6.012-0385",
      "programName": "Програма за развитие на селските райони"
    },
    {
      "ekatte": "52146",
      "lat": 42.29796,
      "lon": 26.091246,
      "title": "Подпомагане на стопанството на земеделски стопанин Гергана Димитрова Йорданова",
      "totalEur": 14999.77,
      "status": "Сключен",
      "contractNumber": "BG06RDNP001-6.012-0409",
      "programName": "Програма за развитие на селските райони"
    },
    {
      "ekatte": "44522",
      "lat": 42.352403,
      "lon": 25.963867,
      "title": "Подпомагане развитието на стопанството на земеделски стопанин Диан Стоянов Йоргов",
      "totalEur": 14999.77,
      "status": "Сключен",
      "contractNumber": "BG06RDNP001-6.012-0454",
      "programName": "Програма за развитие на селските райони"
    },
    {
      "ekatte": "00713",
      "lat": 42.527843,
      "lon": 25.951776,
      "title": "Стартова помощ за развитието на малкото стопанство на Тихомир Петров Тачев с основна дейност отглеждане на пчелни семейства",
      "totalEur": 14999.77,
      "status": "Сключен",
      "contractNumber": "BG06RDNP001-6.012-0460",
      "programName": "Програма за развитие на селските райони"
    },
    {
      "ekatte": "07778",
      "lat": 42.300334,
      "lon": 26.164236,
      "title": "Подпомагане развитието на стопанството на земеделски стопанин Стела Петкова Грозева",
      "totalEur": 14999.77,
      "status": "Сключен",
      "contractNumber": "BG06RDNP001-6.012-1063",
      "programName": "Програма за развитие на селските райони"
    },
    {
      "ekatte": "06788",
      "lat": 42.523528,
      "lon": 25.93104,
      "title": "Подпомагане развитието на стопанството на земеделски стопанин Даниел Младенов Младенов",
      "totalEur": 14999.77,
      "status": "Сключен",
      "contractNumber": "BG06RDNP001-6.012-1129",
      "programName": "Програма за развитие на селските райони"
    },
    {
      "ekatte": "00713",
      "lat": 42.527843,
      "lon": 25.951776,
      "title": "Стартова помощ за развитието на малко стопанство на земеделски стопанин Ивелин Радостинов Йорданов за отглеждане на праскови, пчелни семейства и увеличаване размера на пчелното стопанство.",
      "totalEur": 14999.77,
      "status": "Сключен",
      "contractNumber": "BG06RDNP001-6.012-1293",
      "programName": "Програма за развитие на селските райони"
    },
    {
      "ekatte": "24760",
      "lat": 42.435263,
      "lon": 26.017907,
      "title": "Стартова помощ за развитието на малки стопанства. Участие по Подмярка 6.3 „Стартова помощ за развитието на малки стопанства“ от мярка 6 „Развитие на стопанства и предприятия“.",
      "totalEur": 14999.77,
      "status": "Сключен",
      "contractNumber": "BG06RDNP001-6.012-1434",
      "programName": "Програма за развитие на селските райони"
    },
    {
      "ekatte": "07778",
      "lat": 42.300334,
      "lon": 26.164236,
      "title": "Стартова помощ за развитието на малки стопанства. Участие по Подмярка 6.3 „Стартова помощ за развитието на малки стопанства“ от мярка 6 „Развитие на стопанства и предприятия“.",
      "totalEur": 14999.77,
      "status": "Сключен",
      "contractNumber": "BG06RDNP001-6.012-1489",
      "programName": "Програма за развитие на селските райони"
    },
    {
      "ekatte": "53518",
      "lat": 42.457825,
      "lon": 26.144322,
      "title": "Модернизиране на земеделското стопанство на ЗС Динко Иванов Динев",
      "totalEur": 14999.77,
      "status": "Сключен",
      "contractNumber": "BG06RDNP001-6.012-1501",
      "programName": "Програма за развитие на селските райони"
    },
    {
      "ekatte": "53518",
      "lat": 42.457825,
      "lon": 26.144322,
      "title": "Модернизиране на земеделското стопанство на Марийка Драганова Танева",
      "totalEur": 14999.77,
      "status": "Сключен",
      "contractNumber": "BG06RDNP001-6.012-1597",
      "programName": "Програма за развитие на селските райони"
    },
    {
      "ekatte": "48725",
      "lat": 42.356199,
      "lon": 26.087951,
      "title": "Отглеждане на други зеленчуци - спанак",
      "totalEur": 14999.76,
      "status": "Сключен",
      "contractNumber": "BG06RDNP001-6.007-0912",
      "programName": "Програма за развитие на селските райони"
    },
    {
      "ekatte": "24760",
      "lat": 42.435263,
      "lon": 26.017907,
      "title": "Стартова помощ за развитието на малко стопанство на земеделски стопанин Иван Иванов за отглеждане на сливи, люцерна, царевица и пчелни семейства.",
      "totalEur": 14999.76,
      "status": "Сключен",
      "contractNumber": "BG06RDNP001-6.007-1525",
      "programName": "Програма за развитие на селските райони"
    },
    {
      "ekatte": "67831",
      "lat": 42.405377,
      "lon": 26.094802,
      "title": "Стартова помощ за икономическо развитие и укрепване на земеделското стопанство на Диана Иванова за отглеждане на пчелни семейства",
      "totalEur": 14999.76,
      "status": "Сключен",
      "contractNumber": "BG06RDNP001-6.007-1527",
      "programName": "Програма за развитие на селските райони"
    },
    {
      "ekatte": "56068",
      "lat": 42.303794,
      "lon": 26.055861,
      "title": "Изграждане на дигитален клуб в с. Пет могили, общ. Нова Загора",
      "totalEur": 14316.18,
      "status": "В изпълнение (от дата на стартиране)",
      "contractNumber": "BG-RRP-1.024-0747",
      "programName": "Национален план за възстановяване и устойчивост"
    },
    {
      "ekatte": "27245",
      "lat": 42.38539,
      "lon": 26.144813,
      "title": "Изграждане на дигитален клуб в с. Еленово, община Нова Загора",
      "totalEur": 14316.18,
      "status": "В изпълнение (от дата на стартиране)",
      "contractNumber": "BG-RRP-1.024-0837",
      "programName": "Национален план за възстановяване и устойчивост"
    },
    {
      "ekatte": "36395",
      "lat": 42.512722,
      "lon": 25.908479,
      "title": "Изграждане на дигитален клуб в НАРОДНО ЧИТАЛИЩЕ \"ПАИСИЙ ХИЛЕНДАРСКИ - 1927\"",
      "totalEur": 14316.18,
      "status": "В изпълнение (от дата на стартиране)",
      "contractNumber": "BG-RRP-1.024-1102",
      "programName": "Национален план за възстановяване и устойчивост"
    },
    {
      "ekatte": "38426",
      "lat": 42.522331,
      "lon": 26.168187,
      "title": "Изграждане на дигитален клуб в Народно Читалище СВ СВ КИРИЛ И МЕТОДИЙ 1922 г в с. Коньово",
      "totalEur": 14316.17,
      "status": "В изпълнение (от дата на стартиране)",
      "contractNumber": "BG-RRP-1.024-1090",
      "programName": "Национален план за възстановяване и устойчивост"
    },
    {
      "ekatte": "00713",
      "lat": 42.527843,
      "lon": 25.951776,
      "title": "Подкрепа за производители на риба и други водни организми за преодоляване на икономическите последствия от пандемията COVID-19",
      "totalEur": 13453.83,
      "status": "Приключен (към датата на приключване)",
      "contractNumber": "BG14MFOP001-2.017-0046",
      "programName": "Програма за морско дело и рибарство"
    },
    {
      "ekatte": "00713",
      "lat": 42.527843,
      "lon": 25.951776,
      "title": "Подкрепа за производители на аквакултури за преодоляване на икономическите последствия от агресивната война на Русия срещу Украйна",
      "totalEur": 11822.16,
      "status": "Приключен (към датата на приключване)",
      "contractNumber": "BG14MFOP001-5.021-0044",
      "programName": "Програма за морско дело и рибарство"
    },
    {
      "ekatte": "52146",
      "lat": 42.29796,
      "lon": 26.091246,
      "title": "Изграждане на мрежа от дигитален клуб в Народно читалище - \"Пробуда-1928\" , село Новоселец, община Нова Загора , област Сливен",
      "totalEur": 11692.99,
      "status": "В изпълнение (от дата на стартиране)",
      "contractNumber": "BG-RRP-1.024-0969",
      "programName": "Национален план за възстановяване и устойчивост"
    },
    {
      "ekatte": "51809",
      "lat": 42.491242,
      "lon": 26.01253,
      "title": "Изграждане на фотоволтаична система със системи за схранение на електрическа енергия",
      "totalEur": 11604.12,
      "status": "Приключен (към датата на приключване)",
      "contractNumber": "BG-RRP-4.026-1565",
      "programName": "Национален план за възстановяване и устойчивост"
    },
    {
      "ekatte": "27245",
      "lat": 42.38539,
      "lon": 26.144813,
      "title": "Доставка и монтаж на фотоволтаична система от 10 kWp, включваща система за съхранение на електрическа енергия",
      "totalEur": 11389.39,
      "status": "Приключен (към датата на приключване)",
      "contractNumber": "BG-RRP-4.026-1948",
      "programName": "Национален план за възстановяване и устойчивост"
    },
    {
      "ekatte": "38683",
      "lat": 42.544486,
      "lon": 25.996303,
      "title": "Решения в областта на информационните и комуникационни технологии и киберсигурността в малките и средните предприятия",
      "totalEur": 10215.61,
      "status": "Приключен (към датата на приключване)",
      "contractNumber": "BG-RRP-3.005-4594",
      "programName": "Национален план за възстановяване и устойчивост"
    },
    {
      "ekatte": "51809",
      "lat": 42.491242,
      "lon": 26.01253,
      "title": "Подкрепа за енергия от възобновяеми източници за собствени нужди, чрез придобиване на фотоволтаична система със система за съхранение на електрическа енергия",
      "totalEur": 6493.38,
      "status": "Приключен (към датата на приключване)",
      "contractNumber": "BG-RRP-4.026-1758",
      "programName": "Национален план за възстановяване и устойчивост"
    },
    {
      "ekatte": "51809",
      "lat": 42.491242,
      "lon": 26.01253,
      "title": "Подкрепа за производители на риба и други водни организми за преодоляване на икономическите последствия от пандемията COVID-19",
      "totalEur": 6016.88,
      "status": "Приключен (към датата на приключване)",
      "contractNumber": "BG14MFOP001-2.014-0019",
      "programName": "Програма за морско дело и рибарство"
    },
    {
      "ekatte": "39757",
      "lat": 42.543038,
      "lon": 25.882818,
      "title": "Фотоволтаична система за семейна къща в с.Крива круша - \"КАСА_ФЕЦ\"",
      "totalEur": 5368.56,
      "status": "Приключен (към датата на приключване)",
      "contractNumber": "BG-RRP-4.026-0059",
      "programName": "Национален план за възстановяване и устойчивост"
    },
    {
      "ekatte": "51809",
      "lat": 42.491242,
      "lon": 26.01253,
      "title": "Преодоляване недостига на средства и липсата на ликвидност, настъпили в резултат от епидемичния взрив от COVID-19",
      "totalEur": 5112.92,
      "status": "Приключен (към датата на приключване)",
      "contractNumber": "BG16RFOP002-2.073-11089",
      "programName": "Иновации и конкурентоспособност"
    },
    {
      "ekatte": "51809",
      "lat": 42.491242,
      "lon": 26.01253,
      "title": "Преодоляване недостига на средства и липсата на ликвидност, настъпили в резултат от епидемичния взрив от COVID-19",
      "totalEur": 5112.92,
      "status": "Приключен (към датата на приключване)",
      "contractNumber": "BG16RFOP002-2.073-11111",
      "programName": "Иновации и конкурентоспособност"
    },
    {
      "ekatte": "67831",
      "lat": 42.405377,
      "lon": 26.094802,
      "title": "Преодоляване недостига на средства и липсата на ликвидност, настъпили в резултат от епидемичния взрив от COVID-19",
      "totalEur": 5112.92,
      "status": "Приключен (към датата на приключване)",
      "contractNumber": "BG16RFOP002-2.073-12052",
      "programName": "Иновации и конкурентоспособност"
    },
    {
      "ekatte": "51809",
      "lat": 42.491242,
      "lon": 26.01253,
      "title": "Преодоляване недостига на средства и липсата на ликвидност, настъпили в резултат от епидемичния взрив от COVID-19",
      "totalEur": 5112.92,
      "status": "Приключен (към датата на приключване)",
      "contractNumber": "BG16RFOP002-2.073-16667",
      "programName": "Иновации и конкурентоспособност"
    },
    {
      "ekatte": "51809",
      "lat": 42.491242,
      "lon": 26.01253,
      "title": "Преодоляване недостига на средства и липсата на ликвидност, настъпили в резултат от епидемичния взрив от COVID-19",
      "totalEur": 5112.92,
      "status": "Приключен (към датата на приключване)",
      "contractNumber": "BG16RFOP002-2.073-16727",
      "programName": "Иновации и конкурентоспособност"
    },
    {
      "ekatte": "51809",
      "lat": 42.491242,
      "lon": 26.01253,
      "title": "Преодоляване недостига на средства и липсата на ликвидност, настъпили в резултат от епидемичния взрив от COVID-19",
      "totalEur": 5112.92,
      "status": "Приключен (към датата на приключване)",
      "contractNumber": "BG16RFOP002-2.073-17315",
      "programName": "Иновации и конкурентоспособност"
    },
    {
      "ekatte": "51809",
      "lat": 42.491242,
      "lon": 26.01253,
      "title": "Преодоляване недостига на средства и липсата на ликвидност, настъпили в резултат от епидемичния взрив от COVID-19",
      "totalEur": 5112.92,
      "status": "Приключен (към датата на приключване)",
      "contractNumber": "BG16RFOP002-2.073-18832",
      "programName": "Иновации и конкурентоспособност"
    },
    {
      "ekatte": "51809",
      "lat": 42.491242,
      "lon": 26.01253,
      "title": "Преодоляване недостига на средства и липсата на ликвидност, настъпили в резултат от епидемичния взрив от COVID-19",
      "totalEur": 5112.92,
      "status": "Приключен (към датата на приключване)",
      "contractNumber": "BG16RFOP002-2.073-19896",
      "programName": "Иновации и конкурентоспособност"
    },
    {
      "ekatte": "38683",
      "lat": 42.544486,
      "lon": 25.996303,
      "title": "Преодоляване недостига на средства и липсата на ликвидност, настъпили в резултат от епидемичния взрив от COVID-19",
      "totalEur": 5112.92,
      "status": "Приключен (към датата на приключване)",
      "contractNumber": "BG16RFOP002-2.073-20048",
      "programName": "Иновации и конкурентоспособност"
    },
    {
      "ekatte": "51809",
      "lat": 42.491242,
      "lon": 26.01253,
      "title": "Преодоляване недостига на средства и липсата на ликвидност, настъпили в резултат от епидемичния взрив от COVID-19",
      "totalEur": 5112.92,
      "status": "Приключен (към датата на приключване)",
      "contractNumber": "BG16RFOP002-2.073-21157",
      "programName": "Иновации и конкурентоспособност"
    },
    {
      "ekatte": "51809",
      "lat": 42.491242,
      "lon": 26.01253,
      "title": "Преодоляване недостига на средства и липсата на ликвидност, настъпили в резултат от епидемичния взрив от COVID-19",
      "totalEur": 5112.92,
      "status": "Приключен (към датата на приключване)",
      "contractNumber": "BG16RFOP002-2.073-22642",
      "programName": "Иновации и конкурентоспособност"
    },
    {
      "ekatte": "51809",
      "lat": 42.491242,
      "lon": 26.01253,
      "title": "Преодоляване недостига на средства и липсата на ликвидност, настъпили в резултат от епидемичния взрив от COVID-19",
      "totalEur": 5112.92,
      "status": "Приключен (към датата на приключване)",
      "contractNumber": "BG16RFOP002-2.073-23683",
      "programName": "Иновации и конкурентоспособност"
    },
    {
      "ekatte": "51809",
      "lat": 42.491242,
      "lon": 26.01253,
      "title": "Преодоляване недостига на средства и липсата на ликвидност, настъпили в резултат от епидемичния взрив от COVID-19",
      "totalEur": 5112.92,
      "status": "Приключен (към датата на приключване)",
      "contractNumber": "BG16RFOP002-2.073-2369",
      "programName": "Иновации и конкурентоспособност"
    },
    {
      "ekatte": "51809",
      "lat": 42.491242,
      "lon": 26.01253,
      "title": "Преодоляване недостига на средства и липсата на ликвидност, настъпили в резултат от епидемичния взрив от COVID-19",
      "totalEur": 5112.92,
      "status": "Приключен (към датата на приключване)",
      "contractNumber": "BG16RFOP002-2.073-27155",
      "programName": "Иновации и конкурентоспособност"
    }
  ]
}
