{
  "obshtina": "SML18",
  "generatedAt": "2026-05-28T09:44:40.175Z",
  "sourceContractCount": 65,
  "geocodedCount": 44,
  "pins": [
    {
      "ekatte": "51319",
      "lat": 41.456392,
      "lon": 25.078798,
      "title": "„Реконструкция и рехабилитация на улици в град Неделино, община Неделино, област Смолян“",
      "totalEur": 930199.74,
      "status": "Сключен",
      "contractNumber": "BG06RDNP001-7.017-0041",
      "programName": "Програма за развитие на селските райони"
    },
    {
      "ekatte": "51319",
      "lat": 41.456392,
      "lon": 25.078798,
      "title": "\"Рехабилитация и реконструкция на ул . \"Напредък\" - II част и ул. \"Дельо Войвода\", част от уличната мрежа в град Неделино, община Неделино\"",
      "totalEur": 546162.63,
      "status": "Сключен",
      "contractNumber": "BG06RDNP001-7.001-0025",
      "programName": "Програма за развитие на селските райони"
    },
    {
      "ekatte": "51319",
      "lat": 41.456392,
      "lon": 25.078798,
      "title": "„Подобряване енергийните характеристики на многофамилна жилищна сграда на ул. „Александър Стамболийски“ № 73, Блок К-1, подобряване качеството на живот и намаляване въздействието върху околната среда“",
      "totalEur": 497637.7,
      "status": "В изпълнение (от дата на стартиране)",
      "contractNumber": "BG-RRP-4.023-0325",
      "programName": "Национален план за възстановяване и устойчивост"
    },
    {
      "ekatte": "51319",
      "lat": 41.456392,
      "lon": 25.078798,
      "title": "\"Реконструкция на дворно пространство на СОУ \"Св., св. Кирил и Методий\", в УПИ I ркв.55 по плана на град Неделино, община Неделино\"",
      "totalEur": 369463.68,
      "status": "Сключен",
      "contractNumber": "BG06RDNP001-7.002-0016",
      "programName": "Програма за развитие на селските райони"
    },
    {
      "ekatte": "51319",
      "lat": 41.456392,
      "lon": 25.078798,
      "title": "Топъл обяд в община Неделино",
      "totalEur": 325538.9,
      "status": "Сключен",
      "contractNumber": "BG05SFPR003-1.001-0028",
      "programName": "Програма \"Храни и основно материално подпомагане\" 2021-2027"
    },
    {
      "ekatte": "51319",
      "lat": 41.456392,
      "lon": 25.078798,
      "title": "Инсталиране на фотоволтаични системи в съществуващи социални услуги, делегирана от държавата дейност и закупуване на електрическо превозно средство, включително свързана зарядна станция за предоставяне на социални услуги в община Неделино.",
      "totalEur": 207086.51,
      "status": "В изпълнение (от дата на стартиране)",
      "contractNumber": "BG-RRP-13.009-0177",
      "programName": "Национален план за възстановяване и устойчивост"
    },
    {
      "ekatte": "51319",
      "lat": 41.456392,
      "lon": 25.078798,
      "title": "Възстановяване на МСП чрез подобряване на енергийната ефективност",
      "totalEur": 134204.14,
      "status": "Приключен (към датата на приключване)",
      "contractNumber": "BG16RFOP002-6.002-0384",
      "programName": "Иновации и конкурентоспособност"
    },
    {
      "ekatte": "51319",
      "lat": 41.456392,
      "lon": 25.078798,
      "title": "Подобряване на производствения капацитет във \"Фаст Билдинг 2009\" ЕООД",
      "totalEur": 102258.38,
      "status": "В изпълнение (от дата на стартиране)",
      "contractNumber": "BG16RFPR001-1.004-1894",
      "programName": "Програма \"Конкурентоспособност и иновации в предприятията\" 2021-2027"
    },
    {
      "ekatte": "51319",
      "lat": 41.456392,
      "lon": 25.078798,
      "title": "Изграждане на училищна STEM среда и високотехнологични оборудвани и свързани класни стаи в СУ \"Св. св. Кирил и Методий\", гр. Неделино",
      "totalEur": 98116.85,
      "status": "В изпълнение (от дата на стартиране)",
      "contractNumber": "BG-RRP-1.015-0960",
      "programName": "Национален план за възстановяване и устойчивост"
    },
    {
      "ekatte": "51319",
      "lat": 41.456392,
      "lon": 25.078798,
      "title": "Адаптиране на работната среда във фирма ГЕОКИНТЕКС ЕООД",
      "totalEur": 49513.46,
      "status": "В изпълнение (от дата на стартиране)",
      "contractNumber": "BG05SFPR002-1.004-2189",
      "programName": "Програма \"Развитие на човешките ресурси\" 2021-2027"
    },
    {
      "ekatte": "51319",
      "lat": 41.456392,
      "lon": 25.078798,
      "title": "„Реконструкция на \"Спортна площадка\" в УПИ ХVII, кв.113 гр.Неделино, общ.Неделино, обл.Смолян\"",
      "totalEur": 48260.21,
      "status": "Сключен",
      "contractNumber": "BG06RDNP001-7.007-0036",
      "programName": "Програма за развитие на селските райони"
    },
    {
      "ekatte": "51319",
      "lat": 41.456392,
      "lon": 25.078798,
      "title": "Подобряване на производствения капацитет на семейното предприятие",
      "totalEur": 48130.97,
      "status": "Приключен (към датата на приключване)",
      "contractNumber": "BG16RFPR001-1.004-1168",
      "programName": "Програма \"Конкурентоспособност и иновации в предприятията\" 2021-2027"
    },
    {
      "ekatte": "41157",
      "lat": 41.464374,
      "lon": 25.112302,
      "title": "РАЗВИТИЕ НА АМБУЛАТОРНИТЕ ГРИЖИ В С. ЕЛЕНКА, ОБЩИНА НЕДЕЛИНО",
      "totalEur": 42237.54,
      "status": "В изпълнение (от дата на стартиране)",
      "contractNumber": "BG-RRP-12.014-0075",
      "programName": "Национален план за възстановяване и устойчивост"
    },
    {
      "ekatte": "18374",
      "lat": 41.490308,
      "lon": 25.142264,
      "title": "РАЗВИТИЕ НА АМБУЛАТОРНИТЕ ГРИЖИ В С. ГЪРНАТИ, ОБЩИНА НЕДЕЛИНО",
      "totalEur": 42237.54,
      "status": "В изпълнение (от дата на стартиране)",
      "contractNumber": "BG-RRP-12.014-0076",
      "programName": "Национален план за възстановяване и устойчивост"
    },
    {
      "ekatte": "32559",
      "lat": 41.492611,
      "lon": 25.109519,
      "title": "РАЗВИТИЕ НА АМБУЛАТОРНИТЕ ГРИЖИ В С. ИЗГРЕВ, ОБЩИНА НЕДЕЛИНО",
      "totalEur": 42237.26,
      "status": "В изпълнение (от дата на стартиране)",
      "contractNumber": "BG-RRP-12.014-0072",
      "programName": "Национален план за възстановяване и устойчивост"
    },
    {
      "ekatte": "12927",
      "lat": 41.469839,
      "lon": 25.162083,
      "title": "РАЗВИТИЕ НА АМБУЛАТОРНИТЕ ГРИЖИ В С. ВЪРЛИНО, ОБЩИНА НЕДЕЛИНО",
      "totalEur": 42237.26,
      "status": "В изпълнение (от дата на стартиране)",
      "contractNumber": "BG-RRP-12.014-0073",
      "programName": "Национален план за възстановяване и устойчивост"
    },
    {
      "ekatte": "39092",
      "lat": 41.470343,
      "lon": 25.126721,
      "title": "РАЗВИТИЕ НА АМБУЛАТОРНИТЕ ГРИЖИ В С. КОЧАНИ, ОБЩИНА НЕДЕЛИНО",
      "totalEur": 42237.26,
      "status": "В изпълнение (от дата на стартиране)",
      "contractNumber": "BG-RRP-12.014-0079",
      "programName": "Национален план за възстановяване и устойчивост"
    },
    {
      "ekatte": "51319",
      "lat": 41.456392,
      "lon": 25.078798,
      "title": "Подкрепа за малки предприятия с оборот над 500 000 лв. за преодоляване на икономическите последствия от пандемията COVID-19",
      "totalEur": 25564.59,
      "status": "Приключен (към датата на приключване)",
      "contractNumber": "BG16RFOP002-2.089-4829",
      "programName": "Иновации и конкурентоспособност"
    },
    {
      "ekatte": "51319",
      "lat": 41.456392,
      "lon": 25.078798,
      "title": "\"Подай надежда\" - патронажна грижа за възрастни хора и лица с увреждания в община Неделино",
      "totalEur": 25078.87,
      "status": "Приключен (към датата на приключване)",
      "contractNumber": "BG05M9OP001-2.101-0116",
      "programName": "Развитие на човешките ресурси"
    },
    {
      "ekatte": "41157",
      "lat": 41.464374,
      "lon": 25.112302,
      "title": "Стартова помощ за развитие на малко стопанство на Минка Станчева за отглеждане на ябълки и пчелни семейства.",
      "totalEur": 14999.78,
      "status": "Сключен",
      "contractNumber": "BG06RDNP001-6.007-1780",
      "programName": "Програма за развитие на селските райони"
    },
    {
      "ekatte": "51319",
      "lat": 41.456392,
      "lon": 25.078798,
      "title": "Стартова помощ за развитие на малко стопанство на Ясен Тодоров за отглеждане на пчелни семейства.",
      "totalEur": 14999.78,
      "status": "Сключен",
      "contractNumber": "BG06RDNP001-6.007-1813",
      "programName": "Програма за развитие на селските райони"
    },
    {
      "ekatte": "68309",
      "lat": 41.492925,
      "lon": 25.12158,
      "title": "Стартова помощ за развитие на малко стопанство на Асен Пчеларов за отглеждане на пчелни семейства.",
      "totalEur": 14999.78,
      "status": "Сключен",
      "contractNumber": "BG06RDNP001-6.007-2182",
      "programName": "Програма за развитие на селските райони"
    },
    {
      "ekatte": "73883",
      "lat": 41.473144,
      "lon": 25.144827,
      "title": "Стартова помощ за развитие на малко стопанство на Валери Демиров за отглеждане на трайни насаждения от сливи.",
      "totalEur": 14999.78,
      "status": "Сключен",
      "contractNumber": "BG06RDNP001-6.007-2229",
      "programName": "Програма за развитие на селските райони"
    },
    {
      "ekatte": "12896",
      "lat": 41.463932,
      "lon": 25.00558,
      "title": "Стартова помощ за развитие на малко стопанство на Велин Георгиев за отглеждане на трайни насаждения.",
      "totalEur": 14999.78,
      "status": "Сключен",
      "contractNumber": "BG06RDNP001-6.007-2434",
      "programName": "Програма за развитие на селските райони"
    },
    {
      "ekatte": "51319",
      "lat": 41.456392,
      "lon": 25.078798,
      "title": "Стартова помощ за развитие на малко стопанство на Борис Ангелов за отглеждане на сливи и картофи.",
      "totalEur": 14999.78,
      "status": "Сключен",
      "contractNumber": "BG06RDNP001-6.007-2436",
      "programName": "Програма за развитие на селските райони"
    },
    {
      "ekatte": "41157",
      "lat": 41.464374,
      "lon": 25.112302,
      "title": "Отглеждане на пчелни семейства",
      "totalEur": 14999.77,
      "status": "Сключен",
      "contractNumber": "BG06RDNP001-6.007-1069",
      "programName": "Програма за развитие на селските райони"
    },
    {
      "ekatte": "51319",
      "lat": 41.456392,
      "lon": 25.078798,
      "title": "Подпомагане развитието на стопанството на земеделски стопанин Надка Русева Йорданова",
      "totalEur": 14999.77,
      "status": "Сключен",
      "contractNumber": "BG06RDNP001-6.012-0952",
      "programName": "Програма за развитие на селските райони"
    },
    {
      "ekatte": "21004",
      "lat": 41.473718,
      "lon": 25.1052,
      "title": "Подпомагане развитието на стопанството на земеделски стопанин Асен Емилов Белев",
      "totalEur": 14999.77,
      "status": "Сключен",
      "contractNumber": "BG06RDNP001-6.012-1222",
      "programName": "Програма за развитие на селските райони"
    },
    {
      "ekatte": "51319",
      "lat": 41.456392,
      "lon": 25.078798,
      "title": "Изграждане на фотоволтаичната система за производство на електрическа енергия за собствени нужди, включително системата за съхранение на електрическа енергия",
      "totalEur": 11494.16,
      "status": "Приключен (към датата на приключване)",
      "contractNumber": "BG-RRP-4.026-1337",
      "programName": "Национален план за възстановяване и устойчивост"
    },
    {
      "ekatte": "51319",
      "lat": 41.456392,
      "lon": 25.078798,
      "title": "Подкрепа за енергия от възобновяеми източници за домакинство",
      "totalEur": 10943.1,
      "status": "Приключен (към датата на приключване)",
      "contractNumber": "BG-RRP-4.026-1204",
      "programName": "Национален план за възстановяване и устойчивост"
    },
    {
      "ekatte": "51319",
      "lat": 41.456392,
      "lon": 25.078798,
      "title": "Подкрепа за МСП, извършващи автобусни превози, за преодоляване на икономическите последствия от пандемията COVID-19",
      "totalEur": 5828.74,
      "status": "Приключен (към датата на приключване)",
      "contractNumber": "BG16RFOP002-2.091-0564",
      "programName": "Иновации и конкурентоспособност"
    },
    {
      "ekatte": "51319",
      "lat": 41.456392,
      "lon": 25.078798,
      "title": "Преодоляване недостига на средства и липсата на ликвидност, настъпили в резултат от епидемичния взрив от COVID-19",
      "totalEur": 5112.92,
      "status": "Приключен (към датата на приключване)",
      "contractNumber": "BG16RFOP002-2.073-16748",
      "programName": "Иновации и конкурентоспособност"
    },
    {
      "ekatte": "51319",
      "lat": 41.456392,
      "lon": 25.078798,
      "title": "Преодоляване недостига на средства и липсата на ликвидност, настъпили в резултат от епидемичния взрив от COVID-19",
      "totalEur": 5112.92,
      "status": "Приключен (към датата на приключване)",
      "contractNumber": "BG16RFOP002-2.073-19554",
      "programName": "Иновации и конкурентоспособност"
    },
    {
      "ekatte": "51319",
      "lat": 41.456392,
      "lon": 25.078798,
      "title": "Преодоляване недостига на средства и липсата на ликвидност, настъпили в резултат от епидемичния взрив от COVID-19",
      "totalEur": 5112.92,
      "status": "Приключен (към датата на приключване)",
      "contractNumber": "BG16RFOP002-2.073-4502",
      "programName": "Иновации и конкурентоспособност"
    },
    {
      "ekatte": "68309",
      "lat": 41.492925,
      "lon": 25.12158,
      "title": "Преодоляване недостига на средства и липсата на ликвидност, настъпили в резултат от епидемичния взрив от COVID-19",
      "totalEur": 5112.92,
      "status": "Приключен (към датата на приключване)",
      "contractNumber": "BG16RFOP002-2.073-8806",
      "programName": "Иновации и конкурентоспособност"
    },
    {
      "ekatte": "51319",
      "lat": 41.456392,
      "lon": 25.078798,
      "title": "Преодоляване недостига на средства и липсата на ликвидност, настъпили в резултат от епидемичния взрив от COVID-19",
      "totalEur": 4550.49,
      "status": "Приключен (към датата на приключване)",
      "contractNumber": "BG16RFOP002-2.073-19491",
      "programName": "Иновации и конкурентоспособност"
    },
    {
      "ekatte": "37695",
      "lat": 41.455648,
      "lon": 25.140265,
      "title": "Преодоляване недостига на средства и липсата на ликвидност, настъпили в резултат от епидемичния взрив от COVID-19",
      "totalEur": 4039.2,
      "status": "Приключен (към датата на приключване)",
      "contractNumber": "BG16RFOP002-2.073-26343",
      "programName": "Иновации и конкурентоспособност"
    },
    {
      "ekatte": "51319",
      "lat": 41.456392,
      "lon": 25.078798,
      "title": "Осигуряване на топъл обяд в община Неделино",
      "totalEur": 3208.9,
      "status": "Приключен (към датата на приключване)",
      "contractNumber": "BG05FMOP001-3.001-0061",
      "programName": "Oперативна програма за храни и/или основно материално подпомагане"
    },
    {
      "ekatte": "51319",
      "lat": 41.456392,
      "lon": 25.078798,
      "title": "Преодоляване недостига на средства и липсата на ликвидност, настъпили в резултат от епидемичния взрив от COVID-19",
      "totalEur": 2147.42,
      "status": "Приключен (към датата на приключване)",
      "contractNumber": "BG16RFOP002-2.073-5845",
      "programName": "Иновации и конкурентоспособност"
    },
    {
      "ekatte": "51319",
      "lat": 41.456392,
      "lon": 25.078798,
      "title": "Преодоляване недостига на средства и липсата на ликвидност, настъпили в резултат от епидемичния взрив от COVID-19",
      "totalEur": 1912.23,
      "status": "Приключен (към датата на приключване)",
      "contractNumber": "BG16RFOP002-2.073-26282",
      "programName": "Иновации и конкурентоспособност"
    },
    {
      "ekatte": "51319",
      "lat": 41.456392,
      "lon": 25.078798,
      "title": "Преодоляване недостига на средства и липсата на ликвидност, настъпили в резултат от епидемичния взрив от COVID-19",
      "totalEur": 1666.81,
      "status": "Приключен (към датата на приключване)",
      "contractNumber": "BG16RFOP002-2.073-26281",
      "programName": "Иновации и конкурентоспособност"
    },
    {
      "ekatte": "51319",
      "lat": 41.456392,
      "lon": 25.078798,
      "title": "Преодоляване недостига на средства и липсата на ликвидност, настъпили в резултат от епидемичния взрив от COVID-19",
      "totalEur": 1559.44,
      "status": "Приключен (към датата на приключване)",
      "contractNumber": "BG16RFOP002-2.073-12344",
      "programName": "Иновации и конкурентоспособност"
    },
    {
      "ekatte": "53388",
      "lat": 41.50678,
      "lon": 25.031781,
      "title": "Стартова помощ за развитие на малко стопанство на Николай Велков за отглеждане на пчелни семейства и трайни насаждения.",
      "totalEur": 0,
      "status": "Прекратен (към дата на прекратяване)",
      "contractNumber": "BG06RDNP001-6.007-1507",
      "programName": "Програма за развитие на селските райони"
    },
    {
      "ekatte": "51319",
      "lat": 41.456392,
      "lon": 25.078798,
      "title": "„Внедряване на енергийно спестовни мерки в СУ „Свети Свети Кирили и Методий , гр.Неделино, област Смолян“",
      "totalEur": 0,
      "status": "Прекратен (към дата на прекратяване)",
      "contractNumber": "BG06RDNP001-7.020-0024",
      "programName": "Програма за развитие на селските райони"
    }
  ]
}
