{
  "obshtina": "VID16",
  "generatedAt": "2026-05-28T09:44:40.243Z",
  "sourceContractCount": 40,
  "geocodedCount": 21,
  "pins": [
    {
      "ekatte": "21097",
      "lat": 43.7417,
      "lon": 22.7269,
      "title": "Комбинирани интегрирани териториални инвестиции (ИТИ) на територията на Общините Лом, Димово и Оряхово",
      "totalEur": 496256.66,
      "status": "В изпълнение (от дата на стартиране)",
      "contractNumber": "BG16FFPR003-2.006-0111",
      "programName": "Програма \"Развитие на регионите\" 2021-2027"
    },
    {
      "ekatte": "47648",
      "lat": 43.654985,
      "lon": 22.778676,
      "title": "\"Внедряване на иновации в „ДЛВ” ЕООД“",
      "totalEur": 448556.38,
      "status": "Приключен (към датата на приключване)",
      "contractNumber": "BG16RFPR001-1.003-0228",
      "programName": "Програма \"Конкурентоспособност и иновации в предприятията\" 2021-2027"
    },
    {
      "ekatte": "21097",
      "lat": 43.7417,
      "lon": 22.7269,
      "title": "Устойчиво енергийно обновяване на блок 24 апартамента, град Димово, община Димово",
      "totalEur": 431107.53,
      "status": "В изпълнение (от дата на стартиране)",
      "contractNumber": "BG-RRP-4.023-1772",
      "programName": "Национален план за възстановяване и устойчивост"
    },
    {
      "ekatte": "21097",
      "lat": 43.7417,
      "lon": 22.7269,
      "title": "„Реставрация на църква „Св. Цар Константин и Царица Елена“ и околното пространство – ПИ 4, кв. 61 по плана на гр. Димово, общ. Димово, обл. Видин“",
      "totalEur": 299030.6,
      "status": "Сключен",
      "contractNumber": "BG06RDNP001-7.015-0017",
      "programName": "Програма за развитие на селските райони"
    },
    {
      "ekatte": "21097",
      "lat": 43.7417,
      "lon": 22.7269,
      "title": "„Подобряване на производствения капацитет в „ДИМОТЕК“ ЕООД“",
      "totalEur": 255594.8,
      "status": "Приключен (към датата на приключване)",
      "contractNumber": "BG16RFOP002-2.040-0736",
      "programName": "Иновации и конкурентоспособност"
    },
    {
      "ekatte": "21097",
      "lat": 43.7417,
      "lon": 22.7269,
      "title": "Подкрепа за по-добър живот",
      "totalEur": 255450.91,
      "status": "Приключен (към датата на приключване)",
      "contractNumber": "BG05M9OP001-2.002-0187",
      "programName": "Развитие на човешките ресурси"
    },
    {
      "ekatte": "21097",
      "lat": 43.7417,
      "lon": 22.7269,
      "title": "Подкрепа за прехода към кръгова икономика",
      "totalEur": 204516.76,
      "status": "Приключен (към датата на приключване)",
      "contractNumber": "BG-RRP-3.008-0240",
      "programName": "Национален план за възстановяване и устойчивост"
    },
    {
      "ekatte": "21097",
      "lat": 43.7417,
      "lon": 22.7269,
      "title": "Организация на производители \"Обединени земеделци Димово\"",
      "totalEur": 194831.16,
      "status": "Сключен",
      "contractNumber": "BG06RDNP001-9.001-0024",
      "programName": "Програма за развитие на селските райони"
    },
    {
      "ekatte": "21097",
      "lat": 43.7417,
      "lon": 22.7269,
      "title": "Модернизиране на земеделското стопанство на фирма Агроблок 09 ЕООД",
      "totalEur": 170030.96,
      "status": "Сключен",
      "contractNumber": "BG06RDNP001-4.012-0332",
      "programName": "Програма за развитие на селските райони"
    },
    {
      "ekatte": "00672",
      "lat": 43.8111,
      "lon": 22.9183,
      "title": "Изграждане на училищна STEM среда и високотехнологични оборудвани и свързани класни стаи (ВОСКС).",
      "totalEur": 128843.39,
      "status": "В изпълнение (от дата на стартиране)",
      "contractNumber": "BG-RRP-1.015-1675",
      "programName": "Национален план за възстановяване и устойчивост"
    },
    {
      "ekatte": "21097",
      "lat": 43.7417,
      "lon": 22.7269,
      "title": "природни науки ,математика , информационни технологии",
      "totalEur": 83786.67,
      "status": "В изпълнение (от дата на стартиране)",
      "contractNumber": "BG-RRP-1.015-0466",
      "programName": "Национален план за възстановяване и устойчивост"
    },
    {
      "ekatte": "21097",
      "lat": 43.7417,
      "lon": 22.7269,
      "title": "Инвестиции в земеделски стопанства на „Обединени Земеделци - Димово“ ООД",
      "totalEur": 71458.15,
      "status": "Сключен",
      "contractNumber": "BG06RDNP001-4.012-1832",
      "programName": "Програма за развитие на селските райони"
    },
    {
      "ekatte": "21097",
      "lat": 43.7417,
      "lon": 22.7269,
      "title": "\"Закупуване на електрическо превозно средство и зарядна станция за предоставяне на социални услуги в община Димово\"",
      "totalEur": 58082.76,
      "status": "В изпълнение (от дата на стартиране)",
      "contractNumber": "BG-RRP-13.009-0094",
      "programName": "Национален план за възстановяване и устойчивост"
    },
    {
      "ekatte": "32370",
      "lat": 43.748717,
      "lon": 22.803325,
      "title": "Модернизация чрез технологична и екологична техника на млад земеделски стопанин",
      "totalEur": 35401.86,
      "status": "Сключен",
      "contractNumber": "BG-RRP-6.004-0648",
      "programName": "Национален план за възстановяване и устойчивост"
    },
    {
      "ekatte": "83239",
      "lat": 43.732463,
      "lon": 22.79644,
      "title": "Стартова помощ за млад земеделски стопанин",
      "totalEur": 24999.62,
      "status": "Сключен",
      "contractNumber": "BG06RDNP001-6.001-0240",
      "programName": "Програма за развитие на селските райони"
    },
    {
      "ekatte": "32370",
      "lat": 43.748717,
      "lon": 22.803325,
      "title": "Подкрепа за стопанството на млад земеделски стопанин",
      "totalEur": 24999.61,
      "status": "Сключен",
      "contractNumber": "BG06RDNP001-6.001-1792",
      "programName": "Програма за развитие на селските райони"
    },
    {
      "ekatte": "00672",
      "lat": 43.8111,
      "lon": 22.9183,
      "title": "Изграждане на дигитален клуб в Народно читалище \"Образование - 1898 г.\"",
      "totalEur": 17383.93,
      "status": "В изпълнение (от дата на стартиране)",
      "contractNumber": "BG-RRP-1.024-0618",
      "programName": "Национален план за възстановяване и устойчивост"
    },
    {
      "ekatte": "00672",
      "lat": 43.8111,
      "lon": 22.9183,
      "title": "Стартова помощ за развитието на малки стопанства от мярка 6",
      "totalEur": 14999.77,
      "status": "Сключен",
      "contractNumber": "BG06RDNP001-6.007-2189",
      "programName": "Програма за развитие на селските райони"
    },
    {
      "ekatte": "87549",
      "lat": 43.746273,
      "lon": 22.900684,
      "title": "Подкрепа на малкото стопанство на Алекдандър Славчев Стаменов",
      "totalEur": 14999.77,
      "status": "Сключен",
      "contractNumber": "BG06RDNP001-6.007-2364",
      "programName": "Програма за развитие на селските райони"
    },
    {
      "ekatte": "83239",
      "lat": 43.732463,
      "lon": 22.79644,
      "title": "Подпомагане развитието на пчеларско стопанство",
      "totalEur": 14999.77,
      "status": "Сключен",
      "contractNumber": "BG06RDNP001-6.012-0375",
      "programName": "Програма за развитие на селските райони"
    },
    {
      "ekatte": "21097",
      "lat": 43.7417,
      "lon": 22.7269,
      "title": "„Изграждане на модерен дигитален клуб в Народно Читалище Паисий Хилендарски-1927“, град Димово",
      "totalEur": 14316.17,
      "status": "В изпълнение (от дата на стартиране)",
      "contractNumber": "BG-RRP-1.024-0975",
      "programName": "Национален план за възстановяване и устойчивост"
    }
  ]
}
