{
  "obshtina": "VID22",
  "generatedAt": "2026-05-28T09:44:40.244Z",
  "sourceContractCount": 27,
  "geocodedCount": 19,
  "pins": [
    {
      "ekatte": "40525",
      "lat": 43.8878,
      "lon": 22.5214,
      "title": "Цех за преработка, сушене и замразяване на био плодове и био зеленчуци.",
      "totalEur": 1972257.3,
      "status": "Сключен",
      "contractNumber": "BG06RDNP001-4.001-0530",
      "programName": "Програма за развитие на селските райони"
    },
    {
      "ekatte": "40525",
      "lat": 43.8878,
      "lon": 22.5214,
      "title": "ИЗВЪРШВАНЕ НА СТРОИТЕЛНИ ДЕЙНОСТИ И ДОСТАВКА НА ОБОРУДВАНЕ И ОБЗАВЕЖДАНЕ В ДОМ ЗА СТАРИ ХОРА ГР.КУЛА, ОБЛ.ВИДИН",
      "totalEur": 1842550.12,
      "status": "В изпълнение (от дата на стартиране)",
      "contractNumber": "BG-RRP-11.010-0031",
      "programName": "Национален план за възстановяване и устойчивост"
    },
    {
      "ekatte": "40525",
      "lat": 43.8878,
      "lon": 22.5214,
      "title": "Енергийно обновяване на многофамилна жилищна сграда, град Кула , ул.\"Иван Кръстев\"№2",
      "totalEur": 347841.97,
      "status": "В изпълнение (от дата на стартиране)",
      "contractNumber": "BG-RRP-4.023-1226",
      "programName": "Национален план за възстановяване и устойчивост"
    },
    {
      "ekatte": "40525",
      "lat": 43.8878,
      "lon": 22.5214,
      "title": "\"РЕКОНСТРУКЦИЯ И РЕХАБИЛИТАЦИЯ НА СЪЩЕСТВУВАЩИ УЛИЦИ И ТРОТОАРИ В ГР. КУЛА, ОБЩИНА КУЛА\"",
      "totalEur": 331409.21,
      "status": "Сключен",
      "contractNumber": "BG06RDNP001-7.001-0049",
      "programName": "Програма за развитие на селските райони"
    },
    {
      "ekatte": "78224",
      "lat": 43.961054,
      "lon": 22.637953,
      "title": "Модернизиране на земеделското стопанство на ВАЛИ КЛАС ЕООД",
      "totalEur": 260827.23,
      "status": "Сключен",
      "contractNumber": "BG-RRP-6.004-0741",
      "programName": "Национален план за възстановяване и устойчивост"
    },
    {
      "ekatte": "40525",
      "lat": 43.8878,
      "lon": 22.5214,
      "title": "Равни възможности",
      "totalEur": 255037.51,
      "status": "Приключен (към датата на приключване)",
      "contractNumber": "BG05M9OP001-2.002-0025",
      "programName": "Развитие на човешките ресурси"
    },
    {
      "ekatte": "72775",
      "lat": 43.987205,
      "lon": 22.62133,
      "title": "Модернизиране на земеделското стопанство на АГРОВАЛ 2008 ЕООД, чрез закупуване на земеделска техника и оборудване",
      "totalEur": 227160.33,
      "status": "Сключен",
      "contractNumber": "BG06RDNP001-4.008-0376",
      "programName": "Програма за развитие на селските райони"
    },
    {
      "ekatte": "40525",
      "lat": 43.8878,
      "lon": 22.5214,
      "title": "”Закупуване на специализирана земеделска техника”",
      "totalEur": 219170,
      "status": "Сключен",
      "contractNumber": "BG06RDNP001-4.012-0001",
      "programName": "Програма за развитие на селските райони"
    },
    {
      "ekatte": "40525",
      "lat": 43.8878,
      "lon": 22.5214,
      "title": "Център за дигитални създатели и природни науки",
      "totalEur": 128842.68,
      "status": "В изпълнение (от дата на стартиране)",
      "contractNumber": "BG-RRP-1.015-1385",
      "programName": "Национален план за възстановяване и устойчивост"
    },
    {
      "ekatte": "72775",
      "lat": 43.987205,
      "lon": 22.62133,
      "title": "Внедряване на технологична модернизация в животновъдно стопанство",
      "totalEur": 113583.48,
      "status": "Сключен",
      "contractNumber": "BG-RRP-6.004-3626",
      "programName": "Национален план за възстановяване и устойчивост"
    },
    {
      "ekatte": "40525",
      "lat": 43.8878,
      "lon": 22.5214,
      "title": "Инсталиране на фотоволтаична система (ФЕЦ) в съществуваща социална услуга, делегирана от държавата дейност - „ЦНСТ за пълнолетни лица с психични разстройства“ и закупуване на електрическо превозно средство и свързана зарядна станция за предоставяне на социални услуги в Община Кула",
      "totalEur": 105064.35,
      "status": "В изпълнение (от дата на стартиране)",
      "contractNumber": "BG-RRP-13.009-0041",
      "programName": "Национален план за възстановяване и устойчивост"
    },
    {
      "ekatte": "40525",
      "lat": 43.8878,
      "lon": 22.5214,
      "title": "Знания, партньорства и устойчиво развитие за Северозападна България",
      "totalEur": 47129.46,
      "status": "В изпълнение (от дата на стартиране)",
      "contractNumber": "BG16RFTA001-1.010-0045",
      "programName": "Програма \"Техническа помощ\" 2021-2027"
    },
    {
      "ekatte": "81503",
      "lat": 43.902996,
      "lon": 22.61002,
      "title": "Стартова помощ за млад земеделски стопанин",
      "totalEur": 24999.63,
      "status": "Сключен",
      "contractNumber": "BG06RDNP001-6.001-0708",
      "programName": "Програма за развитие на селските райони"
    },
    {
      "ekatte": "40525",
      "lat": 43.8878,
      "lon": 22.5214,
      "title": "Създаване на земеделско стопанство на Васил Митков Славчев",
      "totalEur": 24999.61,
      "status": "Сключен",
      "contractNumber": "BG06RDNP001-6.001-0825",
      "programName": "Програма за развитие на селските райони"
    },
    {
      "ekatte": "32439",
      "lat": 43.867689,
      "lon": 22.418705,
      "title": "Подпомагане развитието на пчеларско стопанство",
      "totalEur": 14999.77,
      "status": "Сключен",
      "contractNumber": "BG06RDNP001-6.007-1800",
      "programName": "Програма за развитие на селските райони"
    },
    {
      "ekatte": "40525",
      "lat": 43.8878,
      "lon": 22.5214,
      "title": "Подпомагане развитието на малко земеделско стопанство на Владимир Петров Радомиров",
      "totalEur": 14999.77,
      "status": "Сключен",
      "contractNumber": "BG06RDNP001-6.007-2111",
      "programName": "Програма за развитие на селските райони"
    },
    {
      "ekatte": "81503",
      "lat": 43.902996,
      "lon": 22.61002,
      "title": "Подпомагане развитието на малко земеделско стопанство на Иван Йотов Ненков",
      "totalEur": 14999.76,
      "status": "Сключен",
      "contractNumber": "BG06RDNP001-6.012-1270",
      "programName": "Програма за развитие на селските райони"
    },
    {
      "ekatte": "40525",
      "lat": 43.8878,
      "lon": 22.5214,
      "title": "Преодоляване недостига на средства и липсата на ликвидност, настъпили в резултат от епидемичния взрив от COVID-19",
      "totalEur": 4019.02,
      "status": "Приключен (към датата на приключване)",
      "contractNumber": "BG16RFOP002-2.073-8856",
      "programName": "Иновации и конкурентоспособност"
    },
    {
      "ekatte": "69002",
      "lat": 43.8317,
      "lon": 22.4919,
      "title": "Инвестиции в технологична и екологична модернизация за производство на биологична продукция",
      "totalEur": 0,
      "status": "Прекратен (към дата на прекратяване)",
      "contractNumber": "BG-RRP-6.004-3672",
      "programName": "Национален план за възстановяване и устойчивост"
    }
  ]
}
